"city";"lat";"long";"country";"iso2";"admin_name";"capital";"population"
Aadorf;47.4939;8.8975;Switzerland;CH;Thurgau;"";9036
Aarau;47.3923;8.0446;Switzerland;CH;Aargau;admin;21268
Aarberg;47.0458;7.2764;Switzerland;CH;Bern;minor;4629
Aarburg;47.3206;7.9014;Switzerland;CH;Aargau;"";8068
Aarwangen;47.2414;7.7708;Switzerland;CH;Bern;"";4514
Ababkovo;56.0272;43.1564;Russia;RU;Nizhegorodskaya Oblast’;"";1181
Abakan;53.7167;91.4167;Russia;RU;Khakasiya;admin;181709
Abalak;58.1297;68.5975;Russia;RU;Tyumenskaya Oblast’;"";1009
Abana;41.9786;34.011;Turkey;TR;Kastamonu;minor;0
Abatskoye;56.2872;70.4542;Russia;RU;Tyumenskaya Oblast’;"";7959
Abaza;52.65;90.0833;Russia;RU;Khakasiya;"";15335
Abazivka;49.6053;34.3499;Ukraine;UA;Poltavs’ka Oblast’;"";1679
Abdrakhmanovo;54.7758;52.4908;Russia;RU;Tatarstan;"";1687
Abdulino;53.6833;53.65;Russia;RU;Orenburgskaya Oblast’;"";19222
Abinsk;44.8667;38.1667;Russia;RU;Krasnodarskiy Kray;minor;38547
Abja-Paluoja;58.1258;25.3586;Estonia;EE;Viljandimaa;minor;1061
Ablayevo;54.9745;54.837;Russia;RU;Bashkortostan;"";1067
Abram-Tyube;44.3058;45.2717;Russia;RU;Stavropol’skiy Kray;"";1059
Abrau-Dyurso;44.7028;37.6017;Russia;RU;Krasnodarskiy Kray;"";3519
Abrykosivka;45.1097;35.0986;Ukraine;UA;Krym, Avtonomna Respublika;"";1079
Achikulak;44.5467;44.8314;Russia;RU;Stavropol’skiy Kray;"";5936
Achinsk;56.2817;90.5039;Russia;RU;Krasnoyarskiy Kray;"";105264
Achkhoy-Martan;43.1939;45.2833;Russia;RU;Chechnya;minor;23282
Acquarossa;46.4599;8.9273;Switzerland;CH;Ticino;"";1808
Acıgöl;38.5503;34.5092;Turkey;TR;Nevşehir;minor;0
Acıpayam;37.4239;29.3494;Turkey;TR;Denizli;minor;0
Acıpınar;38.5267;33.8522;Turkey;TR;Aksaray;minor;0
Adaklı;39.2262;40.4828;Turkey;TR;Bingöl;minor;0
Adala;38.5776;28.2685;Turkey;TR;Manisa;minor;0
Adalar;40.8678;29.1331;Turkey;TR;İstanbul;minor;0
Adamivka;48.3235;34.2162;Ukraine;UA;Dnipropetrovs’ka Oblast’;"";1406
Adana;37.0;35.325;Turkey;TR;Adana;admin;2220125
Adanak;42.7539;47.4534;Russia;RU;Dagestan;"";1672
Adelboden;46.4931;7.5586;Switzerland;CH;Bern;"";3371
Adilcevaz;38.7991;42.7316;Turkey;TR;Bitlis;minor;0
Adil’-Khalk;44.35;41.9167;Russia;RU;Karachayevo-Cherkesiya;"";1807
Adil’-Yangiyurt;43.5606;46.5864;Russia;RU;Dagestan;"";3864
Adligenswil;47.0706;8.365;Switzerland;CH;Luzern;"";5391
Adliswil;47.3122;8.5256;Switzerland;CH;Zürich;"";18731
Adygeysk;44.88;39.19;Russia;RU;Adygeya;minor;12745
Adıyaman;37.7644;38.2763;Turkey;TR;Adıyaman;admin;304615
Aegerten;47.1164;7.2833;Switzerland;CH;Bern;"";2158
Aeroflotskyi;45.0194;34.0;Ukraine;UA;Krym, Avtonomna Respublika;"";2325
Aesch;47.4694;7.5942;Switzerland;CH;Basel-Landschaft;"";10352
Aesch;47.3369;8.4381;Switzerland;CH;Zürich;"";1341
Aesch;47.2547;8.2414;Switzerland;CH;Luzern;"";1205
Aeugst am Albis;47.2675;8.4853;Switzerland;CH;Zürich;"";1982
Afanasyevka;50.7859;38.5998;Russia;RU;Belgorodskaya Oblast’;"";1156
Afanasyevo;52.580799999999996;38.2108;Russia;RU;Lipetskaya Oblast’;"";1872
Affeltrangen;47.5164;9.0167;Switzerland;CH;Thurgau;"";2551
Affoltern am Albis;47.2817;8.4502;Switzerland;CH;Zürich;"";12080
Affoltern im Emmental;47.0497;7.7167;Switzerland;CH;Bern;"";1097
Afipsip;44.9833;38.7667;Russia;RU;Adygeya;"";2225
Afonikha;59.965;39.965;Russia;RU;Vologodskaya Oblast’;"";1223
Afyonkarahisar;38.7581;30.5386;Turkey;TR;Afyonkarahisar;admin;299673
Afşin;38.2477;36.914;Turkey;TR;Kahramanmaraş;minor;0
Agachaul;42.9209;47.4664;Russia;RU;Dagestan;"";2215
Agapovka;53.294200000000004;59.1344;Russia;RU;Chelyabinskaya Oblast’;"";6561
Agidel;55.9;53.9333;Russia;RU;Bashkortostan;"";14601
Aginskoye;51.1031;114.5228;Russia;RU;Zabaykal’skiy Kray;"";11491
Aginskoye;55.2606;94.9144;Russia;RU;Krasnoyarskiy Kray;"";5584
Aglobi;41.8956;48.3483;Russia;RU;Dagestan;"";2288
Aglona;56.1233;27.0167;Latvia;LV;Aglonas Novads;admin;833
Agno;46.0002;8.9001;Switzerland;CH;Ticino;"";4445
Agoy;44.1456;39.0378;Russia;RU;Krasnodarskiy Kray;"";2662
Agryz;56.5167;52.9833;Russia;RU;Tatarstan;"";19704
Agvali;42.5333;46.1;Russia;RU;Dagestan;"";2781
Agía Nápa;34.9899;34.0006;Cyprus;CY;Ammóchostos;"";3212
Ahlat;38.7489;42.4801;Turkey;TR;Bitlis;minor;0
Ahmetli;38.1782;39.8563;Turkey;TR;Diyarbakır;minor;0
Ahmetli;38.5196;27.9387;Turkey;TR;Manisa;minor;0
Ahrarne;45.0186;34.0544;Ukraine;UA;Krym, Avtonomna Respublika;"";6034
Ahırlı;37.2387;32.1188;Turkey;TR;Konya;minor;0
Aigle;46.3173;6.9646;Switzerland;CH;Valais;"";10131
Aire-la-Ville;46.1902;6.0423;Switzerland;CH;Genève;"";1184
Airolo;46.5333;8.6167;Switzerland;CH;Ticino;"";1527
Aitovo;53.5272;54.2069;Russia;RU;Bashkortostan;"";1176
Aizkraukle;56.6008;25.255;Latvia;LV;Aizkraukles Novads;admin;7044
Aizpute;56.7211;21.6017;Latvia;LV;Aizputes Novads;admin;4036
Ak-Dovurak;51.1667;90.6;Russia;RU;Tyva;"";13580
Akarsu;37.2342;41.06;Turkey;TR;Mardin;minor;0
Akarsu;39.9289;38.6139;Turkey;TR;Erzincan;minor;0
Akcakışla;39.5382;36.3363;Turkey;TR;Sivas;minor;0
Akdağ;40.7123;35.9761;Turkey;TR;Amasya;minor;0
Akdağmadeni;39.6603;35.8836;Turkey;TR;Yozgat;minor;0
Akdemir;38.9833;39.1385;Turkey;TR;Tunceli;minor;0
Akhisar;38.9185;27.8401;Turkey;TR;Manisa;minor;0
Akhremawtsy;55.580799999999996;27.1078;Belarus;BY;Vitsyebskaya Voblasts’;"";1312
Akhtubinsk;48.2833;46.1667;Russia;RU;Astrakhanskaya Oblast’;"";37883
Akhty;41.4647;47.74;Russia;RU;Dagestan;"";13405
Akkaya;41.2191;33.4849;Turkey;TR;Kastamonu;minor;0
Akkuş;40.7931;37.0164;Turkey;TR;Ordu;minor;0
Akköy;37.4914;27.2694;Turkey;TR;Aydın;minor;0
Akköy;37.9569;29.0781;Turkey;TR;Denizli;minor;0
Akkışla;39.0022;36.1738;Turkey;TR;Kayseri;minor;0
Akmeşe;40.8493;30.1982;Turkey;TR;Kocaeli;minor;0
Aknīste;56.1622;25.7411;Latvia;LV;Aknīstes Novads;admin;1011
Akpazar;38.8463;39.6683;Turkey;TR;Tunceli;minor;0
Akpınar;37.5739;38.2208;Turkey;TR;Adıyaman;minor;0
Akpınar;39.45;33.9648;Turkey;TR;Kırşehir;minor;0
Aksakal;40.1473;28.1068;Turkey;TR;Balıkesir;minor;0
Aksakovo;54.0181;54.1525;Russia;RU;Bashkortostan;"";3131
Aksaray;38.3686;34.0297;Turkey;TR;Aksaray;admin;295351
Aksay;51.1714;53.0349;Kazakhstan;KZ;Batys Qazaqstan;"";34799
Aksay;47.2667;39.8667;Russia;RU;Rostovskaya Oblast’;minor;46018
Akseki;37.0486;31.79;Turkey;TR;Antalya;minor;0
Akshuat;53.6759;47.4377;Russia;RU;Ul’yanovskaya Oblast’;"";1515
Aksu;36.9539;30.8478;Turkey;TR;Antalya;minor;0
Aksu;37.7989;31.0711;Turkey;TR;Isparta;minor;0
Aktepe;36.7;36.4833;Turkey;TR;Hatay;minor;0
Aktsyabrski;52.644;28.8801;Belarus;BY;Homyel’skaya Voblasts’;minor;0
Aktuzla;39.3301;42.2853;Turkey;TR;Muş;minor;0
Akusha;42.2781;47.3389;Russia;RU;Dagestan;"";4697
Akutikha;52.4339;84.4744;Russia;RU;Altayskiy Kray;"";1063
Akyaka;40.7397;43.6253;Turkey;TR;Kars;minor;10985
Akyar;51.8636;58.2106;Russia;RU;Bashkortostan;"";6941
Akyazı;40.685;30.6222;Turkey;TR;Sakarya;minor;0
Akyurt;40.1313;33.0907;Turkey;TR;Ankara;minor;0
Akçaabat;41.0212;39.5715;Turkey;TR;Trabzon;minor;0
Akçadağ;38.339;37.9702;Turkey;TR;Malatya;minor;0
Akçakale;36.7108;38.9478;Turkey;TR;Şanlıurfa;minor;113194
Akçakent;39.6228;34.0958;Turkey;TR;Kırşehir;minor;0
Akçakoca;41.0866;31.1162;Turkey;TR;Düzce;minor;0
Akçaova;37.5028;28.0267;Turkey;TR;Aydın;minor;0
Akçaova;41.0366;29.9018;Turkey;TR;Kocaeli;minor;0
Akçapınar;38.9483;38.9456;Turkey;TR;Tunceli;minor;0
Akçasır;38.4472;41.2651;Turkey;TR;Diyarbakır;minor;0
Akçay;36.6022;29.7463;Turkey;TR;Antalya;minor;0
Akören;37.4535;32.3707;Turkey;TR;Konya;minor;0
Akıncı;37.1664;40.8471;Turkey;TR;Mardin;minor;0
Akıncılar;37.7644;38.8231;Turkey;TR;Adıyaman;minor;0
Akıncılar;40.0717;38.3433;Turkey;TR;Sivas;minor;0
Akşar;38.1;42.5333;Turkey;TR;Bitlis;minor;0
Akşar;40.6465;42.3391;Turkey;TR;Erzurum;minor;0
Akşehir;38.3575;31.4164;Turkey;TR;Konya;minor;0
Alaca;40.1683;34.8425;Turkey;TR;Çorum;minor;0
Alacahan;39.1067;37.5756;Turkey;TR;Sivas;minor;0
Alacakaya;38.4575;39.8596;Turkey;TR;Diyarbakır;minor;0
Aladağ;37.5485;35.396;Turkey;TR;Adana;minor;0
Alagir;43.0417;44.2106;Russia;RU;North Ossetia;minor;20043
Alajärvi;63.0;23.8167;Finland;FI;Etelä-Pohjanmaa;minor;10006
Alakurtti;66.9672;30.3383;Russia;RU;Murmanskaya Oblast’;"";3424
Alandskoye;52.2258;59.7952;Russia;RU;Orenburgskaya Oblast’;"";1349
Alanya;36.5436;31.9997;Turkey;TR;Antalya;minor;312319
Alapayevsk;57.85;61.7;Russia;RU;Sverdlovskaya Oblast’;"";37526
Alaplı;41.1814;31.3851;Turkey;TR;Zonguldak;minor;0
Alatskivi;58.5981;27.1336;Estonia;EE;Tartumaa;minor;0
Alatyr;54.85;46.5833;Russia;RU;Chuvashiya;"";11086
Alavieska;64.1667;24.3083;Finland;FI;Pohjois-Pohjanmaa;minor;2687
Alavus;62.5861;23.6194;Finland;FI;Etelä-Pohjanmaa;minor;12044
Alaçam;41.61;35.595;Turkey;TR;Samsun;minor;0
Alaçatı;38.2825;26.3746;Turkey;TR;İzmir;minor;0
Alaşehir;38.3508;28.5172;Turkey;TR;Manisa;minor;0
Albayrak;38.1425;44.2012;Turkey;TR;Van;minor;0
Alchevsk;48.4672;38.7983;Ukraine;UA;Luhans’ka Oblast’;minor;105398
Aldan;58.6;125.3833;Russia;RU;Sakha (Yakutiya);"";20595
Aleksandriya;45.0947;43.2456;Russia;RU;Stavropol’skiy Kray;"";3558
Aleksandrov;56.3936;38.715;Russia;RU;Vladimirskaya Oblast’;"";59328
Aleksandrov Gay;50.1333;48.55;Russia;RU;Saratovskaya Oblast’;"";9728
Aleksandrovka;46.7831;38.9986;Russia;RU;Rostovskaya Oblast’;"";4744
Aleksandrovka;52.6792;54.4156;Russia;RU;Orenburgskaya Oblast’;"";3988
Aleksandrovka;53.3557;49.4721;Russia;RU;Samarskaya Oblast’;"";2177
Aleksandrovka;54.559;72.7537;Russia;RU;Omskaya Oblast’;"";1284
Aleksandrovka-Donskaya;50.5164;40.0727;Russia;RU;Voronezhskaya Oblast’;"";1533
Aleksandrovsk;59.1667;57.5833;Russia;RU;Permskiy Kray;"";12222
Aleksandrovsk-Sakhalinskiy;50.9;142.15;Russia;RU;Sakhalinskaya Oblast’;"";9504
Aleksandrovskiy Zavod;50.9244;117.9361;Russia;RU;Zabaykal’skiy Kray;"";2482
Aleksandrovskoye;60.4286;77.8658;Russia;RU;Tomskaya Oblast’;"";6721
Alekseyevka;50.6333;38.6833;Russia;RU;Belgorodskaya Oblast’;"";38329
Alekseyevka;52.2278;46.3403;Russia;RU;Saratovskaya Oblast’;"";2165
Alekseyevka;53.5522;61.4583;Russia;RU;Chelyabinskaya Oblast’;"";1013
Alekseyevskoye;45.2056;43.5819;Russia;RU;Stavropol’skiy Kray;"";1705
Aleksin;54.5;37.0667;Russia;RU;Tul’skaya Oblast’;"";57892
Aleysk;52.5;82.7833;Russia;RU;Altayskiy Kray;"";28528
Alga;49.9032;57.335;Kazakhstan;KZ;Aqtöbe;"";28267
Algatuy;54.3942;100.1939;Russia;RU;Irkutskaya Oblast’;"";1210
Aliağa;38.7998;26.972;Turkey;TR;İzmir;minor;95392
Alikovo;55.7358;46.7356;Russia;RU;Chuvashiya;"";3023
Alkhan-Kala;43.2586;45.5392;Russia;RU;Chechnya;"";12340
Alkhan-Yurt;43.2317;45.5722;Russia;RU;Chechnya;"";9783
Alkhazurovo;43.0628;45.6511;Russia;RU;Chechnya;"";5534
Alle;47.4257;7.1291;Switzerland;CH;Jura;"";1849
Alleroy;43.2172;46.2822;Russia;RU;Chechnya;"";13405
Alliku;59.3558;24.5561;Estonia;EE;Harjumaa;"";1651
Allschwil;47.5508;7.5358;Switzerland;CH;Basel-Landschaft;"";21150
Almak;42.9883;46.5764;Russia;RU;Dagestan;"";2260
Almaty;43.25;76.9;Kazakhstan;KZ;Almaty;"";1916822
Almazna;48.5167;38.5833;Ukraine;UA;Luhans’ka Oblast’;"";4301
Almetyevsk;54.9;52.3;Russia;RU;Tatarstan;"";154262
Almus;40.3758;36.9044;Turkey;TR;Tokat;minor;0
Alnashi;56.1874;52.4792;Russia;RU;Udmurtiya;"";5964
Aloja;57.7669;24.8828;Latvia;LV;Alojas Novads;admin;1091
Alpatovo;43.7028;45.2417;Russia;RU;Chechnya;"";4861
Alpköy;39.6139;39.1864;Turkey;TR;Erzincan;minor;0
Alpnach;46.9499;8.2309;Switzerland;CH;Obwalden;"";6031
Alpu;39.769;30.9606;Turkey;TR;Eskişehir;minor;0
Alsunga;56.9803;21.5667;Latvia;LV;Alsungas Novads;admin;684
Altdorf;46.8806;8.6394;Switzerland;CH;Uri;admin;9401
Altendorf;47.1922;8.83;Switzerland;CH;Schwyz;"";7081
Alterswil;46.7926;7.2638;Switzerland;CH;Fribourg;"";2028
Altishofen;47.1997;7.9667;Switzerland;CH;Luzern;"";1577
Altnau;47.6073;9.2612;Switzerland;CH;Thurgau;"";2208
Altstätten;47.378;9.5488;Switzerland;CH;Sankt Gallen;minor;11730
Altud;43.7181;43.8722;Russia;RU;Kabardino-Balkariya;"";5554
Altunhisar;37.9916;34.3733;Turkey;TR;Niğde;minor;0
Altındağ;39.9477;32.8639;Turkey;TR;Ankara;minor;0
Altınekin;38.2408;32.8153;Turkey;TR;Konya;minor;0
Altınoluk;39.582300000000004;26.7394;Turkey;TR;Balıkesir;minor;0
Altınova;39.2173;26.7901;Turkey;TR;Balıkesir;minor;0
Altınova;40.6949;29.509900000000002;Turkey;TR;Yalova;minor;0
Altıntaş;39.0597;30.1092;Turkey;TR;Kütahya;minor;0
Altınyaka;36.5586;30.3483;Turkey;TR;Antalya;minor;0
Altınyayla;36.9972;29.5458;Turkey;TR;Burdur;minor;0
Altınyayla;39.2725;36.751;Turkey;TR;Sivas;minor;0
Altınözü;36.1155;36.2483;Turkey;TR;Hatay;minor;0
Alucra;40.3166;38.7528;Turkey;TR;Giresun;minor;0
Alushta;44.6672;34.3978;Ukraine;UA;Krym, Avtonomna Respublika;"";29668
Alzamay;55.55;98.6667;Russia;RU;Irkutskaya Oblast’;"";5908
Alıcık;40.8027;35.3226;Turkey;TR;Amasya;minor;0
Alūksne;57.4239;27.0503;Latvia;LV;Alūksnes Novads;admin;6535
Al’khowka;54.8069;26.2325;Belarus;BY;Hrodzyenskaya Voblasts’;"";1160
Al’mukhametovo;53.0208;58.7286;Russia;RU;Bashkortostan;"";2637
Amasra;41.7463;32.3863;Turkey;TR;Bartın;minor;0
Amasya;40.65;35.8333;Turkey;TR;Amasya;admin;149084
Amden;47.1489;9.1408;Switzerland;CH;Sankt Gallen;"";1782
Amga;60.8972;131.9806;Russia;RU;Sakha (Yakutiya);"";6626
Amriswil;47.5497;9.3;Switzerland;CH;Thurgau;"";13534
Amursk;50.2167;136.9;Russia;RU;Khabarovskiy Kray;"";40106
Amvrosiivka;47.7958;38.4801;Ukraine;UA;Donets’ka Oblast’;"";18413
Amzya;56.2347;54.385;Russia;RU;Bashkortostan;"";4993
Anadyr;64.7333;177.5167;Russia;RU;Chukotskiy Avtonomnyy Okrug;admin;15604
Anamur;36.0751;32.8369;Turkey;TR;Mersin;minor;0
Ananiv;47.7225;29.96;Ukraine;UA;Odes’ka Oblast’;"";8077
Anapa;44.8944;37.3167;Russia;RU;Krasnodarskiy Kray;minor;81447
Andelfingen;47.5947;8.6789;Switzerland;CH;Zürich;"";2201
Andermatt;46.6205;8.6314;Switzerland;CH;Uri;"";1390
Andreapol;56.65;32.2667;Russia;RU;Tverskaya Oblast’;"";7079
Andreyevka;54.1478;48.8406;Russia;RU;Ul’yanovskaya Oblast’;"";1115
Andreyewshchyna;54.5672;30.4522;Belarus;BY;Vitsyebskaya Voblasts’;"";1091
Andriievo-Ivanivka;47.5008;30.4633;Ukraine;UA;Odes’ka Oblast’;"";1692
Andriivka;47.1026;36.5871;Ukraine;UA;Zaporiz’ka Oblast’;"";2755
Andriivka;44.8161;33.5635;Ukraine;UA;Sevastopol’, Misto;"";1498
Andriivka;46.22;30.0825;Ukraine;UA;Odes’ka Oblast’;"";1203
Andrushivka;50.0167;29.0167;Ukraine;UA;Zhytomyrs’ka Oblast’;"";8606
Andrushivka;49.36;29.2025;Ukraine;UA;Vinnyts’ka Oblast’;"";1104
Andrushky;49.8731;29.3433;Ukraine;UA;Zhytomyrs’ka Oblast’;"";2014
Andwil;47.4406;9.281;Switzerland;CH;Sankt Gallen;"";2014
Andırın;37.5776;36.3549;Turkey;TR;Kahramanmaraş;minor;0
Angarsk;52.5667;103.9167;Russia;RU;Irkutskaya Oblast’;"";226374
Angasak;55.6333;54.8;Russia;RU;Bashkortostan;"";1850
Aniskino;55.9417;38.15;Russia;RU;Moskovskaya Oblast’;"";9208
Aniva;46.7167;142.5167;Russia;RU;Sakhalinskaya Oblast’;"";9445
Anières;46.2667;6.2167;Switzerland;CH;Genève;"";2402
Ankara;39.93;32.85;Turkey;TR;Ankara;primary;5503985
Ansalta;42.7;46.1;Russia;RU;Dagestan;"";4598
Antalya;36.9081;30.6956;Turkey;TR;Antalya;admin;2426356
Antipayuta;69.1;76.8667;Russia;RU;Yamalo-Nenetskiy Avtonomnyy Okrug;"";2657
Antipovka;49.83;45.3122;Russia;RU;Volgogradskaya Oblast’;"";2724
Antonivka;48.5286;28.4314;Ukraine;UA;Vinnyts’ka Oblast’;"";1488
Antonovka;63.2867;118.402;Russia;RU;Sakha (Yakutiya);"";2642
Anton’yevka;51.9961;83.974;Russia;RU;Altayskiy Kray;"";1456
Antratsyt;48.1167;39.0833;Ukraine;UA;Luhans’ka Oblast’;"";54640
Antsla;57.8292;26.5289;Estonia;EE;Võrumaa;minor;1352
Anuchino;43.9567;133.0594;Russia;RU;Primorskiy Kray;"";4462
Anysiv;51.4356;31.3611;Ukraine;UA;Chernihivs’ka Oblast’;"";1441
Anzhero-Sudzhensk;56.0833;86.0333;Russia;RU;Kemerovskaya Oblast’;"";76217
Apatity;67.5675;33.393299999999996;Russia;RU;Murmanskaya Oblast’;"";55713
Ape;57.5392;26.6928;Latvia;LV;Apes Novads;admin;808
Apostolove;47.6595;33.717;Ukraine;UA;Dnipropetrovs’ka Oblast’;minor;13792
Appenzell;47.3306;9.4086;Switzerland;CH;Appenzell Innerrhoden;admin;5649
Apples;46.55;6.4333;Switzerland;CH;Vaud;"";1468
Apsheronsk;44.4608;39.7406;Russia;RU;Krasnodarskiy Kray;minor;39762
Apsua;44.45;41.7936;Russia;RU;Karachayevo-Cherkesiya;"";1006
Aqsū;52.0333;76.9167;Kazakhstan;KZ;Pavlodar;"";69354
Aqtaū;43.65;51.15;Kazakhstan;KZ;Mangghystaū;admin;183350
Aqtöbe;50.3;57.1667;Kazakhstan;KZ;Aqtöbe;admin;387807
Araban;37.4267;37.689;Turkey;TR;Gaziantep;minor;0
Aradíppou;34.9478;33.5881;Cyprus;CY;Lárnaka;"";19199
Araklı;40.9385;40.0584;Turkey;TR;Trabzon;minor;0
Aral;46.8;61.6667;Kazakhstan;KZ;Qyzylorda;"";29887
Aralık;39.8728;44.5192;Turkey;TR;Adıyaman;minor;0
Aramil;56.7;60.8333;Russia;RU;Sverdlovskaya Oblast’;"";15236
Arapgir;39.0412;38.4952;Turkey;TR;Malatya;minor;0
Aras;39.9882;42.3063;Turkey;TR;Erzurum;minor;0
Araç;41.2422;33.3277;Turkey;TR;Kastamonu;minor;0
Arbaz;46.2667;7.3833;Switzerland;CH;Valais;"";1280
Arbon;47.5167;9.4333;Switzerland;CH;Thurgau;"";14537
Arbuzynka;47.9067;31.3131;Ukraine;UA;Mykolayivs’ka Oblast’;minor;0
Arch;47.1679;7.4326;Switzerland;CH;Bern;"";1592
Ardahan;41.1167;42.7;Turkey;TR;Ardahan;admin;42226
Ardanuç;41.1233;42.0647;Turkey;TR;Artvin;minor;12056
Ardeşen;41.1911;40.9875;Turkey;TR;Rize;minor;0
Ardon;46.2;7.25;Switzerland;CH;Valais;"";3212
Ardon;43.1667;44.2833;Russia;RU;North Ossetia;"";19412
Argayash;55.4889;60.8767;Russia;RU;Chelyabinskaya Oblast’;"";10293
Argun;43.3;45.8667;Russia;RU;Chechnya;"";37373
Arguvan;38.7738;38.2633;Turkey;TR;Malatya;minor;0
Argıthanı;38.2926;31.7145;Turkey;TR;Konya;minor;0
Arhavi;41.3531;41.31;Turkey;TR;Artvin;minor;20565
Arifiye;40.7004;30.3508;Turkey;TR;Sakarya;minor;0
Arisdorf;47.5128;7.765;Switzerland;CH;Basel-Landschaft;"";1638
Aristau;47.2856;8.3624;Switzerland;CH;Aargau;"";1498
Arkadak;51.9333;43.5;Russia;RU;Saratovskaya Oblast’;"";11895
Arkaulovo;55.3986;57.9256;Russia;RU;Bashkortostan;"";1439
Arkhangelsk;64.55;40.5333;Russia;RU;Arkhangel’skaya Oblast’;admin;351488
Arkhangelskoye;54.4039;56.7797;Russia;RU;Bashkortostan;"";5819
Arkhangelskoye;54.4292;48.6544;Russia;RU;Ul’yanovskaya Oblast’;"";3370
Arkhangel’skoye;44.6186;44.0931;Russia;RU;Stavropol’skiy Kray;"";4935
Arkhanhelska Sloboda;46.635;33.7047;Ukraine;UA;Khersons’ka Oblast’;"";1136
Arkhipo-Osipovka;44.363;38.5337;Russia;RU;Krasnodarskiy Kray;"";7853
Arkhipovka;50.21;39.41;Russia;RU;Voronezhskaya Oblast’;"";1336
Arlesheim;47.4922;7.6203;Switzerland;CH;Basel-Landschaft;"";9202
Armavir;45.0;41.1167;Russia;RU;Krasnodarskiy Kray;"";190709
Armizonskoye;55.9461;67.6736;Russia;RU;Tyumenskaya Oblast’;"";4776
Armutlu;40.5194;28.8281;Turkey;TR;Yalova;minor;0
Armutlu;39.5756;38.4272;Turkey;TR;Erzincan;minor;0
Arni;47.3192;8.4222;Switzerland;CH;Aargau;"";1843
Arosa;46.7831;9.6831;Switzerland;CH;Graubünden;"";3185
Arpaçay;40.8452;43.3275;Turkey;TR;Kars;minor;0
Arsenyev;44.1667;133.2667;Russia;RU;Primorskiy Kray;"";52471
Arshty;43.1391;45.1294;Russia;RU;Ingushetiya;"";1462
Arsin;40.9527;39.9267;Turkey;TR;Trabzon;minor;0
Arsk;56.0906;49.8764;Russia;RU;Tatarstan;"";20540
Arslanköy;37.0188;34.2874;Turkey;TR;Mersin;minor;0
Arsuz;36.4131;35.8903;Turkey;TR;Hatay;minor;0
Artemivsk;48.4403;38.7422;Ukraine;UA;Luhans’ka Oblast’;"";7506
Arth;47.0644;8.5242;Switzerland;CH;Schwyz;"";11983
Artova;40.1158;36.3001;Turkey;TR;Tokat;minor;0
Artsyz;45.9833;29.4167;Ukraine;UA;Odes’ka Oblast’;minor;0
Artvin;41.1822;41.8194;Turkey;TR;Artvin;admin;35081
Artëm;43.35;132.1833;Russia;RU;Primorskiy Kray;"";106692
Artëmovsk;54.35;93.4333;Russia;RU;Krasnoyarskiy Kray;"";1688
Artëmovskiy;57.3667;61.8667;Russia;RU;Sverdlovskaya Oblast’;"";30778
Aruküla;59.3669;25.0762;Estonia;EE;Harjumaa;minor;0
Arys;42.4297;68.8046;Kazakhstan;KZ;Ongtüstik Qazaqstan;"";40707
Arzamas;55.3833;43.8;Russia;RU;Nizhegorodskaya Oblast’;"";104547
Arzgir;45.3736;44.2208;Russia;RU;Stavropol’skiy Kray;"";14722
Arıcak;38.5634;40.1248;Turkey;TR;Elazığ;minor;0
Arıt;41.6871;32.624;Turkey;TR;Bartın;minor;0
Asarcık;41.0356;36.2356;Turkey;TR;Samsun;minor;0
Asbest;57.0;61.4667;Russia;RU;Sverdlovskaya Oblast’;"";64091
Ascona;46.15;8.7667;Switzerland;CH;Ticino;"";5534
Asen’yevskoye;55.1229;36.3045;Russia;RU;Kaluzhskaya Oblast’;"";2080
Asha;55.0;57.25;Russia;RU;Chelyabinskaya Oblast’;"";29692
Ashaga-Stal;41.7;48.2;Russia;RU;Dagestan;"";2849
Ashaga-Stal-Kazmalyar;41.6814;48.2183;Russia;RU;Dagestan;"";2978
Ashaga-Yarak;41.8231;47.9525;Russia;RU;Dagestan;"";1329
Ashmyany;54.425;25.9375;Belarus;BY;Hrodzyenskaya Voblasts’;minor;16966
Ashukino;56.1667;37.95;Russia;RU;Moskovskaya Oblast’;"";9544
Asino;57.0;86.15;Russia;RU;Tomskaya Oblast’;"";24354
Asipovichy;53.3;28.65;Belarus;BY;Mahilyowskaya Voblasts’;minor;29981
Askaniia-Nova;46.4511;33.8683;Ukraine;UA;Khersons’ka Oblast’;"";2741
Askarovo;53.3333;58.5167;Russia;RU;Bashkortostan;"";7634
Askino;56.0869;56.5792;Russia;RU;Bashkortostan;"";6918
Askola;60.5278;25.6;Finland;FI;Uusimaa;minor;5104
Aslanapa;39.2158;29.8699;Turkey;TR;Kütahya;minor;0
Assab;42.4694;46.4994;Russia;RU;Dagestan;"";1669
Assens;46.6178;6.6274;Switzerland;CH;Vaud;"";1077
Assokolay;44.845;39.4681;Russia;RU;Adygeya;"";1442
Astara;38.44;48.875;Azerbaijan;AZ;Astara;admin;16800
Astrakhan;46.3333;48.0167;Russia;RU;Astrakhanskaya Oblast’;admin;532504
Astravyets;54.6136;25.9553;Belarus;BY;Hrodzyenskaya Voblasts’;minor;14147
Asyanovo;55.4444;54.7192;Russia;RU;Bashkortostan;"";1479
Atabey;37.9508;30.6386;Turkey;TR;Isparta;minor;0
Atbasar;51.8;68.3667;Kazakhstan;KZ;Aqmola;"";29733
Atburgazı;37.6364;27.2461;Turkey;TR;Aydın;minor;0
Atemar;54.1819;45.4053;Russia;RU;Mordoviya;"";4078
Athíenou;35.0618;33.5417;Cyprus;CY;Lárnaka;"";4996
Atkaracalar;40.8159;33.0756;Turkey;TR;Çankırı;minor;0
Atkarsk;51.8667;45.0;Russia;RU;Saratovskaya Oblast’;"";25140
Attalens;46.5167;6.85;Switzerland;CH;Fribourg;"";3521
Attinghausen;46.8611;8.6281;Switzerland;CH;Uri;"";1725
Attiswil;47.2472;7.6135;Switzerland;CH;Bern;"";1504
Atyraū;47.1167;51.8833;Kazakhstan;KZ;Atyraū;admin;163221
Atça;37.8858;28.2156;Turkey;TR;Aydın;minor;0
Au;47.4331;9.6333;Switzerland;CH;Sankt Gallen;"";7788
Aubonne;46.5;6.3833;Switzerland;CH;Vaud;"";3241
Auce;56.4611;22.8942;Latvia;LV;Auces Novads;admin;2236
Auenstein;47.4178;8.1358;Switzerland;CH;Aargau;"";1581
Augst;47.535;7.7128;Switzerland;CH;Aargau;"";1024
Augšlīgatne;57.1869;25.0361;Latvia;LV;Līgatnes Novads;"";1435
Auly;48.5575;34.4628;Ukraine;UA;Dnipropetrovs’ka Oblast’;"";4127
Aura;60.6472;22.5903;Finland;FI;Varsinais-Suomi;minor;3991
Auvernier;46.9763;6.8783;Switzerland;CH;Neuchâtel;"";1559
Auw;47.2122;8.3664;Switzerland;CH;Aargau;"";2157
Avadan;41.9317;48.3356;Russia;RU;Dagestan;"";2871
Avanos;38.715;34.8467;Turkey;TR;Nevşehir;minor;0
Avdiivka;48.1333;37.75;Ukraine;UA;Donets’ka Oblast’;"";34938
Avdon;54.669200000000004;55.7164;Russia;RU;Bashkortostan;"";5263
Avenches;46.88;7.0398;Switzerland;CH;Vaud;"";4292
Averyanovka;43.8477;46.7547;Russia;RU;Dagestan;"";3532
Aviatorske;48.3664;35.083;Ukraine;UA;Dnipropetrovs’ka Oblast’;"";2438
Avry-sur-Matran;46.7833;7.0667;Switzerland;CH;Fribourg;"";1921
Avtury;43.1667;46.0;Russia;RU;Chechnya;"";17970
Avully;46.1675;5.9985;Switzerland;CH;Genève;"";1756
Avusy;46.15;5.9833;Switzerland;CH;Genève;"";1416
Ayagöz;47.9645;80.4344;Kazakhstan;KZ;Shyghys Qazaqstan;"";41593
Ayancık;41.95;34.5833;Turkey;TR;Sinop;minor;23720
Ayaş;40.0154;32.3325;Turkey;TR;Ankara;minor;0
Aybastı;40.6867;37.3992;Turkey;TR;Ordu;minor;0
Aydın;37.8481;27.8453;Turkey;TR;Aydın;admin;191037
Aydıncık;36.1667;33.35;Turkey;TR;Mersin;minor;11088
Aydıncık;40.1273;35.2877;Turkey;TR;Yozgat;minor;0
Aydınlar;38.622;38.5405;Turkey;TR;Elazığ;minor;0
Aydıntepe;40.3833;40.1427;Turkey;TR;Bayburt;minor;0
Ayent;46.328;7.4103;Switzerland;CH;Valais;"";4059
Ayrancı;37.3613;33.6883;Turkey;TR;Karaman;minor;0
Ayvacık;39.6011;26.4047;Turkey;TR;Çanakkale;minor;33568
Ayvacık;40.9911;36.6314;Turkey;TR;Samsun;minor;0
Ayvalık;39.319;26.6954;Turkey;TR;Balıkesir;minor;0
Azdavay;41.6427;33.3;Turkey;TR;Kastamonu;minor;0
Aznakayevo;54.85;53.0667;Russia;RU;Tatarstan;"";34896
Azov;47.1;39.4167;Russia;RU;Rostovskaya Oblast’;minor;80721
Azovo;54.6997;73.0236;Russia;RU;Omskaya Oblast’;"";5997
Azyershchyna;52.4003;30.3375;Belarus;BY;Homyel’skaya Voblasts’;"";4707
Ağabeyli;37.7336;37.1162;Turkey;TR;Kahramanmaraş;minor;0
Ağaçlı;38.5173;40.904;Turkey;TR;Diyarbakır;minor;0
Ağaçören;38.8748;33.9167;Turkey;TR;Aksaray;minor;0
Ağcabədi;40.0489;47.4502;Azerbaijan;AZ;Ağcabədi;admin;39200
Ağdam;39.9833;46.9167;Azerbaijan;AZ;Ağdam;admin;3770
Ağdaş;40.65;47.4833;Azerbaijan;AZ;Ağdaş;admin;29600
Ağlasun;37.6494;30.5342;Turkey;TR;Burdur;minor;0
Ağlı;41.686;33.5538;Turkey;TR;Kastamonu;minor;0
Ağrı;39.7225;43.0544;Turkey;TR;Ağrı;admin;149188
Ağstafa;41.1167;45.45;Azerbaijan;AZ;Ağstafa;admin;20200
Ağsu;40.5708;48.3928;Azerbaijan;AZ;Ağsu;admin;20200
Ağın;38.9379;38.7116;Turkey;TR;Elazığ;minor;0
Aşağı Irmaklar;41.183;42.1744;Turkey;TR;Artvin;minor;0
Aşağıpınarbaşı;38.0383;32.6008;Turkey;TR;Konya;minor;0
Aşağıçiğil;38.0515;31.8638;Turkey;TR;Konya;minor;0
Aşkale;39.9172;40.6848;Turkey;TR;Erzurum;minor;0
Baar;47.1956;8.5264;Switzerland;CH;Zug;"";24322
Babadağ;37.8076;28.8567;Turkey;TR;Denizli;minor;0
Babaeski;41.4325;27.0931;Turkey;TR;Kırklareli;minor;0
Babatorun;36.0825;36.2989;Turkey;TR;Hatay;minor;0
Babayurt;43.5992;46.7758;Russia;RU;Dagestan;"";16165
Babche;48.6667;24.4417;Ukraine;UA;Ivano-Frankivs’ka Oblast’;"";2484
Babrovichy;52.2917;29.3728;Belarus;BY;Homyel’skaya Voblasts’;"";2338
Babruysk;53.15;29.2333;Belarus;BY;Mahilyowskaya Voblasts’;minor;212200
Babstovo;48.1175;132.4817;Russia;RU;Yevreyskaya Avtonomnaya Oblast’;"";4465
Babugent;43.2736;43.5458;Russia;RU;Kabardino-Balkariya;"";3647
Babushkin;51.7167;105.8667;Russia;RU;Buryatiya;"";4513
Babyn;48.5242;26.8553;Ukraine;UA;Chernivets’ka Oblast’;"";2143
Babyn;49.1314;29.3228;Ukraine;UA;Vinnyts’ka Oblast’;"";1247
Babyntsi;50.6411;30.0269;Ukraine;UA;Kyyivs’ka Oblast’;"";2810
Babīte;56.9567;23.9472;Latvia;LV;Babītes Novads;"";1273
Babək;39.1111;45.4114;Azerbaijan;AZ;Babək;minor;5600
Bachi-Yurt;43.2191;46.1926;Russia;RU;Chechnya;"";19727
Bad Zurzach;47.5872;8.2944;Switzerland;CH;Aargau;minor;4242
Bademli;38.0817;28.0578;Turkey;TR;İzmir;minor;0
Baden;47.4729;8.308;Switzerland;CH;Aargau;"";19122
Bafra;41.5682;35.9069;Turkey;TR;Samsun;minor;97452
Bagan;54.1;77.6667;Russia;RU;Novosibirskaya Oblast’;"";5510
Bagayevskaya;47.3241;40.3879;Russia;RU;Rostovskaya Oblast’;minor;0
Bagdarin;54.4444;113.5872;Russia;RU;Buryatiya;"";4735
Bagnes;46.0833;7.2167;Switzerland;CH;Valais;"";8096
Bagrationovsk;54.3833;20.6333;Russia;RU;Kaliningradskaya Oblast’;minor;6482
Bahçe;37.2011;36.5775;Turkey;TR;Osmaniye;minor;0
Bahçecik;40.6681;29.9148;Turkey;TR;Kocaeli;minor;0
Bahçesaray;38.1246;42.7983;Turkey;TR;Van;minor;0
Bahşılı;39.8002;33.437;Turkey;TR;Kırıkkale;minor;0
Baibuzy;49.4772;31.6728;Ukraine;UA;Cherkas’ka Oblast’;"";1765
Baikonur;45.63;63.314;Kazakhstan;KZ;Qyzylorda;"";39161
Bairachky;48.3883;38.5992;Ukraine;UA;Luhans’ka Oblast’;"";1065
Bakacak;40.205;27.0832;Turkey;TR;Çanakkale;minor;0
Bakal;54.9333;58.8;Russia;RU;Chelyabinskaya Oblast’;"";19264
Bakaly;55.1764;53.8026;Russia;RU;Bashkortostan;"";9568
Bakhchysarai;44.7528;33.8608;Ukraine;UA;Krym, Avtonomna Respublika;minor;27351
Bakhilovo;53.4017;49.6322;Russia;RU;Samarskaya Oblast’;"";1086
Bakhmut;48.6044;38.0067;Ukraine;UA;Donets’ka Oblast’;minor;75798
Bakhtemir;46.1635;47.8141;Russia;RU;Astrakhanskaya Oblast’;"";2615
Baklan;37.9769;29.6086;Turkey;TR;Denizli;minor;0
Baklashi;52.2256;104.0486;Russia;RU;Irkutskaya Oblast’;"";4003
Baksan;43.6833;43.5333;Russia;RU;Kabardino-Balkariya;"";38474
Baksanenok;43.6897;43.6547;Russia;RU;Kabardino-Balkariya;"";7843
Baku;40.3667;49.8352;Azerbaijan;AZ;Bakı;primary;2181800
Bakırdağı;38.216;35.7902;Turkey;TR;Kayseri;minor;0
Bala;39.5542;33.1234;Turkey;TR;Ankara;minor;0
Balaban;38.4611;37.5788;Turkey;TR;Malatya;minor;0
Balabanovo;55.1833;36.65;Russia;RU;Kaluzhskaya Oblast’;"";25608
Balabyne;47.735;35.2142;Ukraine;UA;Zaporiz’ka Oblast’;"";6010
Balakhani;42.6331;46.8885;Russia;RU;Dagestan;"";2164
Balakliia;49.4564;36.8389;Ukraine;UA;Kharkivs’ka Oblast’;"";28868
Balakovo;52.039;47.7839;Russia;RU;Saratovskaya Oblast’;"";191260
Balakən;41.7233;46.3919;Azerbaijan;AZ;Balakən;admin;8134
Balashikha;55.8;37.95;Russia;RU;Moskovskaya Oblast’;"";450771
Balashov;51.55;43.1667;Russia;RU;Saratovskaya Oblast’;"";76776
Balcı;38.7253;34.1012;Turkey;TR;Aksaray;minor;0
Baldone;56.7425;24.3908;Latvia;LV;Baldones Novads;admin;3664
Balerna;45.85;9.0;Switzerland;CH;Ticino;"";3269
Baley;51.5833;116.6333;Russia;RU;Zabaykal’skiy Kray;"";11151
Balezino;57.9787;53.0138;Russia;RU;Udmurtiya;minor;0
Balgach;47.4;9.5997;Switzerland;CH;Sankt Gallen;"";4797
Ballaigues;46.7333;6.4167;Switzerland;CH;Vaud;"";1064
Ballwil;47.1497;8.3164;Switzerland;CH;Luzern;"";2786
Ballı;40.8303;27.0555;Turkey;TR;Tekirdağ;minor;0
Baloži;56.875;24.1194;Latvia;LV;Ķekavas Novads;"";6780
Balpayam;39.4201;40.0571;Turkey;TR;Tunceli;minor;0
Balqash;46.85;75.0;Kazakhstan;KZ;Qaraghandy;"";78002
Balsthal;47.3164;7.6944;Switzerland;CH;Solothurn;minor;6117
Balta;47.9361;29.6225;Ukraine;UA;Odes’ka Oblast’;minor;19353
Baltinava;56.9447;27.6447;Latvia;LV;Baltinavas Novads;admin;443
Baltiysk;54.65;19.9167;Russia;RU;Kaliningradskaya Oblast’;minor;33317
Baltschieder;46.3759;7.8806;Switzerland;CH;Valais;"";1328
Balvi;57.1292;27.2667;Latvia;LV;Balvu Novads;admin;5840
Balya;39.7486;27.5789;Turkey;TR;Balıkesir;minor;0
Balyktuyul’;50.7558;88.0394;Russia;RU;Altay;"";1340
Balyqshy;47.0666;51.8666;Kazakhstan;KZ;Atyraū;"";31624
Balıkesir;39.6511;27.8842;Turkey;TR;Balıkesir;admin;331788
Balıklıçeşme;40.3103;27.0817;Turkey;TR;Çanakkale;minor;0
Balışeyh;39.9141;33.7233;Turkey;TR;Kırıkkale;minor;0
Banarlı;41.067;27.3358;Turkey;TR;Tekirdağ;minor;0
Banaz;38.7644;29.7525;Turkey;TR;Uşak;minor;0
Bandurove;48.2275;29.8606;Ukraine;UA;Kirovohrads’ka Oblast’;"";1980
Bandırma;40.3542;27.9725;Turkey;TR;Balıkesir;minor;154359
Bar;49.0781;27.6831;Ukraine;UA;Vinnyts’ka Oblast’;minor;16136
Barabash;43.1917;131.4889;Russia;RU;Primorskiy Kray;"";5691
Barabinsk;55.35;78.35;Russia;RU;Novosibirskaya Oblast’;"";28941
Baranavichy;53.1167;25.9833;Belarus;BY;Brestskaya Voblasts’;minor;174183
Baranivka;50.3;27.6667;Ukraine;UA;Zhytomyrs’ka Oblast’;"";11765
Baranykivka;49.1586;39.8453;Ukraine;UA;Luhans’ka Oblast’;"";1544
Baran’;54.4833;30.3333;Belarus;BY;Vitsyebskaya Voblasts’;"";10573
Barashi;50.7156;28.0308;Ukraine;UA;Zhytomyrs’ka Oblast’;"";2032
Barashivka;50.2714;28.5489;Ukraine;UA;Zhytomyrs’ka Oblast’;"";1250
Baratayevka;54.2776;48.2001;Russia;RU;Ul’yanovskaya Oblast’;"";2753
Barbengo;45.9622;8.9153;Switzerland;CH;Ticino;"";1970
Bardonnex;46.1333;6.1;Switzerland;CH;Genève;"";2299
Barguzin;53.6172;109.6347;Russia;RU;Buryatiya;"";5702
Barla;38.0178;30.7828;Turkey;TR;Isparta;minor;0
Barmino;56.1088;45.5094;Russia;RU;Nizhegorodskaya Oblast’;"";1391
Barnaul;53.356700000000004;83.7872;Russia;RU;Altayskiy Kray;admin;633301
Barturyn;51.3333;32.8833;Ukraine;UA;Chernihivs’ka Oblast’;"";2552
Bartın;41.6344;32.3375;Turkey;TR;Bartın;admin;155016
Barvikha;55.7411;37.2761;Russia;RU;Moskovskaya Oblast’;"";7213
Barvynkove;48.9067;37.0131;Ukraine;UA;Kharkivs’ka Oblast’;"";8660
Baryatino;54.3103;34.5269;Russia;RU;Kaluzhskaya Oblast’;"";2748
Barysh;53.65;47.1167;Russia;RU;Ul’yanovskaya Oblast’;"";15974
Baryshevo;54.9561;83.1854;Russia;RU;Novosibirskaya Oblast’;"";5195
Baryshivka;50.3703;31.3286;Ukraine;UA;Kyyivs’ka Oblast’;"";10783
Basel;47.5606;7.5906;Switzerland;CH;Basel-Stadt;admin;177595
Bashmachka;48.156;35.0109;Ukraine;UA;Dnipropetrovs’ka Oblast’;"";1421
Bashtanka;47.4;32.45;Ukraine;UA;Mykolayivs’ka Oblast’;minor;0
Baskil;38.5687;38.8163;Turkey;TR;Elazığ;minor;0
Bassersdorf;47.4431;8.6283;Switzerland;CH;Zürich;"";11593
Bassins;46.4667;6.2333;Switzerland;CH;Vaud;"";1344
Basyuvka;49.7811;23.9092;Ukraine;UA;L’vivs’ka Oblast’;"";1042
Batagay;67.656;134.635;Russia;RU;Sakha (Yakutiya);"";4266
Batagay-Alyta;67.7981;130.3986;Russia;RU;Sakha (Yakutiya);"";1835
Bataysk;47.1333;39.75;Russia;RU;Rostovskaya Oblast’;"";126769
Batlaich;42.5545;46.7537;Russia;RU;Dagestan;"";1081
Batman;37.8833;41.1333;Turkey;TR;Batman;admin;447106
Batovo;48.3667;22.3833;Ukraine;UA;Zakarpats’ka Oblast’;"";3003
Battalgazi;38.4229;38.3585;Turkey;TR;Malatya;minor;0
Baturino;57.7545;85.1702;Russia;RU;Tomskaya Oblast’;"";1391
Baulmes;46.7833;6.5167;Switzerland;CH;Vaud;"";1027
Bauma;47.3681;8.8778;Switzerland;CH;Zürich;"";4925
Bauska;56.4067;24.1875;Latvia;LV;Bauskas Novads;admin;9840
Bavly;54.4;53.25;Russia;RU;Tatarstan;"";22145
Bay-Khaak;51.161;94.464;Russia;RU;Tyva;"";3110
Bayanday;53.0661;105.5139;Russia;RU;Irkutskaya Oblast’;"";2626
Bayangol;53.7731;110.2689;Russia;RU;Buryatiya;"";1351
Bayangol;50.6994;103.4714;Russia;RU;Buryatiya;"";1087
Bayat;40.646;34.261;Turkey;TR;Çorum;minor;16525
Bayat;38.9831;30.9247;Turkey;TR;Afyonkarahisar;minor;0
Bayburt;40.2546;40.226;Turkey;TR;Bayburt;admin;66633
Baychurovo;51.3394;42.6844;Russia;RU;Voronezhskaya Oblast’;"";1577
Baykalovo;57.3969;63.7672;Russia;RU;Sverdlovskaya Oblast’;"";6457
Baykalsk;51.5172;104.1561;Russia;RU;Irkutskaya Oblast’;"";12629
Baykan;38.1575;41.7733;Turkey;TR;Siirt;minor;0
Bayki;55.8417;56.8144;Russia;RU;Bashkortostan;"";1095
Baykibashevo;55.8072;56.5775;Russia;RU;Bashkortostan;"";1133
Baykit;61.6778;96.3833;Russia;RU;Krasnoyarskiy Kray;"";3293
Baykovtsy;49.5603;25.6872;Ukraine;UA;Ternopil’s’ka Oblast’;"";1296
Baymak;52.5833;58.3167;Russia;RU;Bashkortostan;"";17254
Bayramaul;43.2989;46.726;Russia;RU;Dagestan;"";2858
Bayramiç;39.8086;26.6098;Turkey;TR;Çanakkale;minor;0
Bayramören;40.9433;33.203;Turkey;TR;Çankırı;minor;0
Bayunovskiye Klyuchi;53.3281;84.1822;Russia;RU;Altayskiy Kray;"";1569
Bayındır;38.2192;27.6481;Turkey;TR;İzmir;minor;40584
Bazaliia;49.7178;26.4708;Ukraine;UA;Khmel’nyts’ka Oblast’;"";1541
Bazarnyye Mataki;54.9053;49.9258;Russia;RU;Tatarstan;"";5899
Bazhenovo;53.975;53.9014;Russia;RU;Bashkortostan;"";1120
Bağarası;37.7071;27.5487;Turkey;TR;Aydın;minor;0
Bağdere;38.1144;40.7338;Turkey;TR;Diyarbakır;minor;0
Bağgöze;37.7126;41.9154;Turkey;TR;Siirt;minor;0
Bağkonak;38.2175;31.2722;Turkey;TR;Isparta;minor;0
Bağlar;37.9137;40.2058;Turkey;TR;Diyarbakır;minor;0
Bağlıca;37.8697;41.7511;Turkey;TR;Siirt;minor;0
Bağpınar;37.5914;38.3191;Turkey;TR;Adıyaman;minor;0
Bağışlı;37.7177;44.0356;Turkey;TR;Hakkâri;minor;0
Başgedikler;40.6408;43.5217;Turkey;TR;Kars;minor;0
Başkale;38.0453;44.0172;Turkey;TR;Van;minor;0
Başköy;39.8723;39.8419;Turkey;TR;Erzincan;minor;0
Başmakçı;37.8972;30.0117;Turkey;TR;Afyonkarahisar;minor;0
Başpınar;39.1902;38.6874;Turkey;TR;Erzincan;minor;0
Başyayla;36.7534;32.6802;Turkey;TR;Karaman;minor;0
Başyurt;38.8351;39.9793;Turkey;TR;Elazığ;minor;0
Başçiftlik;40.5469;37.1692;Turkey;TR;Tokat;minor;0
Beatenberg;46.6997;7.8;Switzerland;CH;Bern;"";1196
Beckenried;46.9665;8.4747;Switzerland;CH;Nidwalden;"";3672
Bedano;46.05;8.9167;Switzerland;CH;Ticino;"";1551
Bedirli;39.5835;36.6212;Turkey;TR;Sivas;minor;0
Bednodem’yanovsk;53.9333;43.1833;Russia;RU;Penzenskaya Oblast’;"";7106
Begnins;46.4333;6.25;Switzerland;CH;Vaud;"";1950
Beinwil am See;47.2678;8.2025;Switzerland;CH;Aargau;"";3276
Bekhteyevka;50.8072;37.2167;Russia;RU;Belgorodskaya Oblast’;"";3290
Bekilli;38.2311;29.4197;Turkey;TR;Denizli;minor;0
Bekirhan;38.1409;41.2935;Turkey;TR;Batman;minor;0
Belaya Glina;46.078;40.8665;Russia;RU;Krasnodarskiy Kray;minor;0
Belaya Kalitva;48.1667;40.7833;Russia;RU;Rostovskaya Oblast’;minor;40275
Belaya Kholunitsa;58.8333;50.85;Russia;RU;Kirovskaya Oblast’;"";10406
Belaya Rechka;43.4333;43.5083;Russia;RU;Kabardino-Balkariya;"";3430
Belebey;54.1;54.1333;Russia;RU;Bashkortostan;"";60188
Beleluia;48.4986;25.4775;Ukraine;UA;Ivano-Frankivs’ka Oblast’;"";1500
Belen;36.4917;36.1917;Turkey;TR;Hatay;minor;33540
Belenikhino;50.94;36.6267;Russia;RU;Belgorodskaya Oblast’;"";1183
Belfaux;46.8287;7.095;Switzerland;CH;Fribourg;"";3281
Belgorod;50.6;36.6;Russia;RU;Belgorodskaya Oblast’;admin;391135
Belinskiy;52.9667;43.4167;Russia;RU;Penzenskaya Oblast’;"";7694
Bellach;47.215;7.5;Switzerland;CH;Solothurn;"";5214
Bellevue;46.25;6.15;Switzerland;CH;Genève;"";3299
Bellikon;47.3891;8.3436;Switzerland;CH;Aargau;"";1562
Bellinzona;46.1956;9.0238;Switzerland;CH;Ticino;"";43220
Bellmund;47.1029;7.2432;Switzerland;CH;Bern;"";1689
Belmont-sur-Lausanne;46.5265;6.6876;Switzerland;CH;Vaud;"";3721
Belobozhnitsa;49.0494;25.6814;Ukraine;UA;Ternopil’s’ka Oblast’;"";2035
Belogorodka;50.0042;26.6475;Ukraine;UA;Khmel’nyts’ka Oblast’;"";1816
Belogorsk;50.9167;128.4833;Russia;RU;Amurskaya Oblast’;"";66183
Belokurikha;52.0;84.9833;Russia;RU;Altayskiy Kray;"";15160
Belomorsk;64.5167;34.7667;Russia;RU;Kareliya;"";9861
Beloozërsk;50.6536;105.7158;Russia;RU;Buryatiya;"";1011
Beloozërskiy;55.4614;38.4422;Russia;RU;Moskovskaya Oblast’;"";18297
Belorechensk;44.7667;39.8667;Russia;RU;Krasnodarskiy Kray;minor;52082
Beloretsk;53.9667;58.4;Russia;RU;Bashkortostan;"";65477
Belousovo;55.0917;36.6667;Russia;RU;Kaluzhskaya Oblast’;"";9288
Belovo;54.4167;86.3;Russia;RU;Kemerovskaya Oblast’;"";72519
Beloyarskiy;63.7167;66.6667;Russia;RU;Khanty-Mansiyskiy Avtonomnyy Okrug-Yugra;"";19542
Belozerye;54.3325;47.1678;Russia;RU;Ul’yanovskaya Oblast’;"";1040
Belozërsk;60.0333;37.7833;Russia;RU;Vologodskaya Oblast’;"";8786
Belozërskoye;55.8214;65.5842;Russia;RU;Kurganskaya Oblast’;"";4141
Belp;46.8914;7.4972;Switzerland;CH;Bern;"";11439
Belsk;52.8711;103.078;Russia;RU;Irkutskaya Oblast’;"";1144
Belyayevka;51.3975;56.4167;Russia;RU;Orenburgskaya Oblast’;"";5992
Belyy;55.8333;32.9333;Russia;RU;Tverskaya Oblast’;"";3197
Belyy Klyuch;54.2178;48.2959;Russia;RU;Ul’yanovskaya Oblast’;"";2330
Belz;50.3833;24.0167;Ukraine;UA;L’vivs’ka Oblast’;"";2308
Belëv;53.8;36.1333;Russia;RU;Tul’skaya Oblast’;"";13180
Belören;37.6372;37.5803;Turkey;TR;Adıyaman;minor;0
Belören;37.2148;32.5536;Turkey;TR;Konya;minor;0
Belören;40.8616;33.4956;Turkey;TR;Çankırı;minor;0
Bendzary;47.9308;29.6642;Ukraine;UA;Odes’ka Oblast’;"";1040
Bene;48.1664;22.7569;Ukraine;UA;Zakarpats’ka Oblast’;"";1409
Benken;47.1924;8.9957;Switzerland;CH;Sankt Gallen;"";3025
Bennäs;63.6;22.7917;Finland;FI;Pohjanmaa;minor;0
Benoy;42.9774;46.3094;Russia;RU;Chechnya;"";5484
Benoy-Yurt;43.6931;45.0503;Russia;RU;Chechnya;"";7738
Bercher;46.6916;6.7062;Switzerland;CH;Vaud;"";1238
Berdakel;43.2645;45.8226;Russia;RU;Chechnya;"";6945
Berdiansk;46.7598;36.7845;Ukraine;UA;Zaporiz’ka Oblast’;minor;114205
Berdigestyakh;62.0984;126.6957;Russia;RU;Sakha (Yakutiya);"";6462
Berdsk;54.75;83.1;Russia;RU;Novosibirskaya Oblast’;"";103578
Berdychiv;49.8919;28.6;Ukraine;UA;Zhytomyrs’ka Oblast’;minor;76229
Berdyuzhye;55.8042;68.3;Russia;RU;Tyumenskaya Oblast’;"";5158
Berehove;48.2025;22.6375;Ukraine;UA;Zakarpats’ka Oblast’;minor;23732
Bereketli;40.5127;37.2886;Turkey;TR;Tokat;minor;0
Berestechko;50.35;25.1167;Ukraine;UA;Volyns’ka Oblast’;"";1711
Berezan;50.3197;31.47;Ukraine;UA;Kyyivs’ka Oblast’;"";16506
Berezanka;46.855;31.3875;Ukraine;UA;Mykolayivs’ka Oblast’;minor;4132
Berezhany;49.544200000000004;28.5072;Ukraine;UA;Vinnyts’ka Oblast’;"";1287
Berezhany;49.4464;24.9436;Ukraine;UA;Ternopil’s’ka Oblast’;minor;0
Berezhynka;48.4867;32.3547;Ukraine;UA;Kirovohrads’ka Oblast’;"";2082
Berezivka;47.2039;30.9125;Ukraine;UA;Odes’ka Oblast’;minor;9845
Bereznehuvate;47.3114;32.8478;Ukraine;UA;Mykolayivs’ka Oblast’;minor;0
Berezniki;59.4167;56.7833;Russia;RU;Permskiy Kray;"";145115
Berezova Rudka;50.3153;32.2401;Ukraine;UA;Poltavs’ka Oblast’;"";1971
Berezovo;48.3039;23.4892;Ukraine;UA;Zakarpats’ka Oblast’;"";3000
Berezyna;49.4461;24.0672;Ukraine;UA;L’vivs’ka Oblast’;"";2127
Berg;47.5664;9.1664;Switzerland;CH;Thurgau;"";3410
Berg;47.5;8.15;Switzerland;CH;Aargau;"";1589
Bergama;39.1228;27.1783;Turkey;TR;İzmir;minor;103185
Bergdietikon;47.3942;8.3861;Switzerland;CH;Aargau;"";2828
Berikon;47.3525;8.3736;Switzerland;CH;Aargau;"";4776
Beringen;47.6964;8.5754;Switzerland;CH;Schaffhausen;"";4643
Beringovskiy;63.0655;179.3067;Russia;RU;Chukotskiy Avtonomnyy Okrug;"";1861
Bern;46.948;7.4474;Switzerland;CH;Bern;primary;133798
Berneck;47.4246;9.6125;Switzerland;CH;Sankt Gallen;"";3963
Bernex;46.1784;6.0684;Switzerland;CH;Genève;"";10233
Bernove;48.4981;26.6336;Ukraine;UA;Khmel’nyts’ka Oblast’;"";1125
Beromünster;47.1997;8.2;Switzerland;CH;Luzern;"";6580
Bershad;48.3728;29.5325;Ukraine;UA;Vinnyts’ka Oblast’;minor;12795
Beryslav;46.8333;33.4167;Ukraine;UA;Khersons’ka Oblast’;minor;12417
Berëzovka;53.4242;84.0586;Russia;RU;Altayskiy Kray;"";4836
Berëzovka;54.795;73.0792;Russia;RU;Omskaya Oblast’;"";2200
Berëzovka;51.1808;45.9169;Russia;RU;Saratovskaya Oblast’;"";1060
Berëzovskiy;56.9;60.8;Russia;RU;Sverdlovskaya Oblast’;"";57892
Berëzovskiy;55.6667;86.25;Russia;RU;Kemerovskaya Oblast’;"";46215
Beslan;43.1833;44.5333;Russia;RU;North Ossetia;"";37029
Besleney;44.2461;41.7414;Russia;RU;Karachayevo-Cherkesiya;"";3514
Besni;37.6928;37.8611;Turkey;TR;Adıyaman;minor;0
Bettingen;47.5708;7.665;Switzerland;CH;Basel-Stadt;"";1213
Bettlach;47.2039;7.425;Switzerland;CH;Solothurn;"";4910
Bettwiesen;47.5;9.0333;Switzerland;CH;Thurgau;"";1247
Bevaix;46.9312;6.8041;Switzerland;CH;Neuchâtel;"";3784
Bex;46.25;7.0167;Switzerland;CH;Vaud;"";7771
Beya;53.0458;90.9414;Russia;RU;Khakasiya;"";5247
Beyazköy;41.3483;27.7039;Turkey;TR;Tekirdağ;minor;0
Beyağaç;37.2353;28.8961;Turkey;TR;Denizli;minor;0
Beycuma;41.3281;31.9681;Turkey;TR;Zonguldak;minor;0
Beydağ;38.0869;28.2089;Turkey;TR;Kayseri;minor;12507
Beykoz;41.1439;29.0906;Turkey;TR;İstanbul;minor;0
Beylikova;39.6869;31.2056;Turkey;TR;Eskişehir;minor;0
Beyləqan;39.7692;47.6156;Azerbaijan;AZ;Beyləqan;admin;12263
Beypazarı;40.1703;31.9211;Turkey;TR;Ankara;minor;48274
Beypınarı;39.5064;37.7069;Turkey;TR;Sivas;minor;0
Beytüşşebap;37.5632;43.1658;Turkey;TR;Şırnak;minor;0
Beyçayırı;38.0141;41.3237;Turkey;TR;Batman;minor;0
Beyçayırı;40.2551;26.9244;Turkey;TR;Çanakkale;minor;0
Beyşehir;37.6773;31.7246;Turkey;TR;Konya;minor;0
Bezborodky;49.8994;31.9856;Ukraine;UA;Cherkas’ka Oblast’;"";1211
Bezengi;43.2128;43.2794;Russia;RU;Kabardino-Balkariya;"";1038
Bezhetsk;57.7833;36.7;Russia;RU;Tverskaya Oblast’;"";9450
Bezliudivka;49.8694;36.2719;Ukraine;UA;Kharkivs’ka Oblast’;"";9436
Bezopasnoye;45.6376;41.9358;Russia;RU;Stavropol’skiy Kray;"";6598
Bezymyannoye;51.3325;46.4375;Russia;RU;Saratovskaya Oblast’;"";1456
Beşikdüzü;41.052;39.2329;Turkey;TR;Trabzon;minor;0
Beşiri;37.9157;41.2865;Turkey;TR;Batman;minor;0
Beşkonak;37.1444;31.1992;Turkey;TR;Antalya;minor;0
Beşpınar;41.1382;35.2172;Turkey;TR;Samsun;minor;0
Beşpınar;37.8371;41.6022;Turkey;TR;Batman;minor;0
Biasca;46.35;8.9667;Switzerland;CH;Ticino;"";6115
Biberist;47.1828;7.5586;Switzerland;CH;Solothurn;"";8567
Biberstein;47.4141;8.0818;Switzerland;CH;Aargau;"";1571
Bibrka;49.6358;24.2936;Ukraine;UA;L’vivs’ka Oblast’;"";3817
Bichura;50.5864;107.5975;Russia;RU;Buryatiya;"";9145
Biel/Bienne;47.1372;7.2472;Switzerland;CH;Bern;"";54456
Biga;40.2281;27.2422;Turkey;TR;Çanakkale;minor;0
Bigadiç;39.3925;28.1311;Turkey;TR;Balıkesir;minor;0
Biglen;46.9278;7.6267;Switzerland;CH;Bern;"";1811
Bikin;46.8167;134.25;Russia;RU;Khabarovskiy Kray;"";15928
Bila Tserkva;49.7956;30.1167;Ukraine;UA;Kyyivs’ka Oblast’;minor;208944
Bila Tserkva;47.95;23.9333;Ukraine;UA;Zakarpats’ka Oblast’;"";3024
Bilche;49.41;23.8294;Ukraine;UA;L’vivs’ka Oblast’;"";1684
Bile;48.4936;39.0367;Ukraine;UA;Luhans’ka Oblast’;"";6512
Bilecik;40.1431;29.9792;Turkey;TR;Bilecik;admin;81723
Bilenke;48.7664;37.6314;Ukraine;UA;Donets’ka Oblast’;"";9136
Bilenke;46.0519;30.3697;Ukraine;UA;Odes’ka Oblast’;"";1268
Bilhorod-Dnistrovskyi;46.1833;30.3333;Ukraine;UA;Odes’ka Oblast’;minor;57210
Biliaivka;46.4828;30.2014;Ukraine;UA;Odes’ka Oblast’;minor;0
Bilibino;68.05;166.45;Russia;RU;Chukotskiy Avtonomnyy Okrug;"";5319
Bilkivtsi;50.3675;28.9772;Ukraine;UA;Zhytomyrs’ka Oblast’;"";1056
Bilmak;47.3589;36.65;Ukraine;UA;Zaporiz’ka Oblast’;minor;6802
Biloberizka;48.1656;25.0469;Ukraine;UA;Chernivets’ka Oblast’;"";1234
Bilohirsk;45.0544;34.6022;Ukraine;UA;Krym, Avtonomna Respublika;minor;16428
Bilohorodka;50.4;30.2167;Ukraine;UA;Kyyivs’ka Oblast’;"";21367
Bilokorovychi;51.1089;28.0175;Ukraine;UA;Zhytomyrs’ka Oblast’;"";2520
Bilokrynnytsia;50.1429;25.7497;Ukraine;UA;Ternopil’s’ka Oblast’;"";2215
Bilokurakyne;49.5167;38.7167;Ukraine;UA;Luhans’ka Oblast’;"";6560
Bilopillya;51.1532;34.3025;Ukraine;UA;Sums’ka Oblast’;"";15215
Bilousivka;49.9453;32.3714;Ukraine;UA;Cherkas’ka Oblast’;"";2473
Bilovodsk;49.1992;39.5756;Ukraine;UA;Luhans’ka Oblast’;minor;12000
Bilozerka;46.6333;32.4333;Ukraine;UA;Khersons’ka Oblast’;minor;9565
Bilozirka;47.0853;32.4544;Ukraine;UA;Mykolayivs’ka Oblast’;"";1757
Bilshivtsi;49.1833;24.75;Ukraine;UA;Ivano-Frankivs’ka Oblast’;"";1938
Bilyarsk;54.9833;50.3861;Russia;RU;Tatarstan;"";2204
Bilyne;47.8731;29.6244;Ukraine;UA;Odes’ka Oblast’;"";2074
Biləsuvar;39.4481;48.5428;Azerbaijan;AZ;Biləsuvar;admin;22800
Bingöl;38.8861;40.5017;Turkey;TR;Bingöl;admin;160165
Binningen;47.5333;7.5667;Switzerland;CH;Basel-Landschaft;"";15580
Bioggio;46.0167;8.9;Switzerland;CH;Ticino;"";2626
Birecik;37.0258;37.9784;Turkey;TR;Şanlıurfa;minor;0
Birgi;38.2503;28.0592;Turkey;TR;İzmir;minor;0
Birky;51.8081;25.1947;Ukraine;UA;Volyns’ka Oblast’;"";1599
Birky;50.1251;34.1706;Ukraine;UA;Poltavs’ka Oblast’;"";1188
Birmensdorf;47.3542;8.4378;Switzerland;CH;Zürich;"";6385
Birmenstorf;47.4636;8.25;Switzerland;CH;Aargau;"";2992
Birobidzhan;48.7833;132.9333;Russia;RU;Yevreyskaya Avtonomnaya Oblast’;admin;73623
Birr;47.4358;8.2028;Switzerland;CH;Aargau;"";4354
Birrwil;47.2902;8.1962;Switzerland;CH;Aargau;"";1166
Birsfelden;47.5531;7.6231;Switzerland;CH;Basel-Landschaft;"";10299
Birsk;55.4167;55.5333;Russia;RU;Bashkortostan;"";43572
Birwinken;47.5833;9.2;Switzerland;CH;Thurgau;"";1319
Biryusinsk;55.95;97.8167;Russia;RU;Irkutskaya Oblast’;"";8497
Bischofszell;47.4997;9.2333;Switzerland;CH;Thurgau;"";6016
Bismil;37.8451;40.6593;Turkey;TR;Diyarbakır;minor;0
Bitantsy;60.9167;132.15;Russia;RU;Sakha (Yakutiya);"";1216
Bitlis;38.4;42.1167;Turkey;TR;Bitlis;admin;71501
Biysk;52.5167;85.1667;Russia;RU;Altayskiy Kray;"";203108
Bizhbulyak;53.6967;54.2642;Russia;RU;Bashkortostan;"";6446
Bière;46.5333;6.3333;Switzerland;CH;Vaud;"";1590
Björby;60.2572;20.1342;Finland;FI;Åland;minor;0
Blagodarnyy;45.1029;43.4252;Russia;RU;Stavropol’skiy Kray;"";30530
Blagodatnoye;45.3967;42.5772;Russia;RU;Stavropol’skiy Kray;"";4869
Blagovar;54.5797;54.9314;Russia;RU;Bashkortostan;"";2061
Blagoveshchensk;50.2578;127.5364;Russia;RU;Amurskaya Oblast’;admin;224419
Blagoveshchensk;55.0333;55.9833;Russia;RU;Bashkortostan;"";35008
Blahodatne;50.65;24.2667;Ukraine;UA;Volyns’ka Oblast’;"";4714
Blahovishchenske;48.3197;30.2353;Ukraine;UA;Kirovohrads’ka Oblast’;"";6232
Blechepsin;44.8217;40.5017;Russia;RU;Adygeya;"";3084
Blizhneye Borisovo;56.1864;43.9361;Russia;RU;Nizhegorodskaya Oblast’;"";1273
Blonay;46.4667;6.9;Switzerland;CH;Vaud;"";6173
Blumenstein;46.7331;7.5164;Switzerland;CH;Bern;"";1246
Blyasino;56.9457;28.3062;Russia;RU;Pskovskaya Oblast’;minor;0
Blystavytsya;50.6006;30.1822;Ukraine;UA;Kyyivs’ka Oblast’;"";1172
Blyzhnie;45.0569;35.3306;Ukraine;UA;Krym, Avtonomna Respublika;"";2779
Bobrivnyk;50.2347;34.3054;Ukraine;UA;Poltavs’ka Oblast’;"";1120
Bobrov;51.0944;40.0322;Russia;RU;Voronezhskaya Oblast’;"";20605
Bobrovka;54.0442;61.7444;Russia;RU;Chelyabinskaya Oblast’;"";3411
Bobrovka;53.1822;83.8794;Russia;RU;Altayskiy Kray;"";3251
Bobrovka;53.1557;50.672;Russia;RU;Samarskaya Oblast’;"";1842
Bobrovytsia;50.7333;31.3833;Ukraine;UA;Chernihivs’ka Oblast’;"";10894
Bobrynets;48.0578;32.1581;Ukraine;UA;Kirovohrads’ka Oblast’;minor;10898
Bochanytsya;50.5286;26.6953;Ukraine;UA;Rivnens’ka Oblast’;"";1038
Bochechky;51.2994;33.4176;Ukraine;UA;Sums’ka Oblast’;"";1679
Bodaki;49.893299999999996;25.8071;Ukraine;UA;Ternopil’s’ka Oblast’;"";1148
Bodakva;50.2996;33.4281;Ukraine;UA;Poltavs’ka Oblast’;"";1152
Bodaybo;57.8506;114.1933;Russia;RU;Irkutskaya Oblast’;"";12316
Bodrum;37.0383;27.4292;Turkey;TR;Muğla;minor;0
Bogashevo;56.3653;85.1478;Russia;RU;Tomskaya Oblast’;"";3773
Bogdanovich;56.7833;62.05;Russia;RU;Sverdlovskaya Oblast’;"";29309
Bogdanovka;44.142;44.7191;Russia;RU;Stavropol’skiy Kray;"";1428
Bogoroditsk;53.7667;38.1333;Russia;RU;Tul’skaya Oblast’;"";31139
Bogoroditskoye;46.3289;41.1758;Russia;RU;Rostovskaya Oblast’;"";1746
Bogorodsk;56.0997;43.5072;Russia;RU;Nizhegorodskaya Oblast’;"";34240
Bogoslovka;53.2189;44.8083;Russia;RU;Penzenskaya Oblast’;"";5286
Bogotol;56.2;89.5167;Russia;RU;Krasnoyarskiy Kray;"";23622
Bogovarovo;58.9764;47.0206;Russia;RU;Kostromskaya Oblast’;"";2450
Bograd;54.2297;90.8297;Russia;RU;Khakasiya;"";4670
Boguchany;58.3667;97.45;Russia;RU;Krasnoyarskiy Kray;"";11232
Boguchar;49.9333;40.55;Russia;RU;Voronezhskaya Oblast’;"";11270
Bohdanivka;48.5015;36.11;Ukraine;UA;Dnipropetrovs’ka Oblast’;"";5016
Bohdanivka;47.8158;31.1344;Ukraine;UA;Mykolayivs’ka Oblast’;"";1839
Bohdanivka;48.6414;29.1081;Ukraine;UA;Vinnyts’ka Oblast’;"";1023
Bohodukhiv;50.1608;35.5164;Ukraine;UA;Kharkivs’ka Oblast’;minor;15576
Bohorodchany;48.8;24.5333;Ukraine;UA;Ivano-Frankivs’ka Oblast’;minor;8222
Bohuslav;48.4661;36.0287;Ukraine;UA;Dnipropetrovs’ka Oblast’;"";3880
Bohuslav;49.5464;30.8741;Ukraine;UA;Kyyivs’ka Oblast’;minor;0
Bohynivka;48.489;36.3527;Ukraine;UA;Dnipropetrovs’ka Oblast’;"";1073
Boikivske;47.4139;38.0108;Ukraine;UA;Donets’ka Oblast’;minor;4461
Bokhonyky;49.1644;28.38;Ukraine;UA;Vinnyts’ka Oblast’;"";1690
Bokovskaya;49.229;41.8306;Russia;RU;Rostovskaya Oblast’;minor;0
Boksitogorsk;59.4833;33.85;Russia;RU;Leningradskaya Oblast’;"";15249
Bolaman;41.0343;37.5941;Turkey;TR;Ordu;minor;0
Bolayır;40.5158;26.7553;Turkey;TR;Çanakkale;minor;0
Bolekhiv;49.0669;23.8514;Ukraine;UA;Ivano-Frankivs’ka Oblast’;"";10476
Bolgar;54.9667;49.0333;Russia;RU;Tatarstan;"";8476
Bolgatovo;56.8031;28.9488;Russia;RU;Pskovskaya Oblast’;minor;0
Bolhrad;45.6855;28.6134;Ukraine;UA;Odes’ka Oblast’;minor;17400
Bolkhov;53.45;36.0;Russia;RU;Orlovskaya Oblast’;"";26570
Bolkhuny;47.9864;46.42;Russia;RU;Astrakhanskaya Oblast’;"";4418
Bolligen;46.9761;7.4986;Switzerland;CH;Bern;"";6262
Bologoye;57.8787;34.0789;Russia;RU;Tverskaya Oblast’;minor;21158
Bolokhovo;54.0833;37.8167;Russia;RU;Tul’skaya Oblast’;"";9043
Bolotnoye;55.6667;84.4;Russia;RU;Novosibirskaya Oblast’;"";15629
Bolshebredikhinskoye;43.8972;46.8561;Russia;RU;Dagestan;"";1739
Bolshesidorovskoye;45.0316;39.8388;Russia;RU;Adygeya;"";1561
Bolshetroitskoye;50.5489;37.2922;Russia;RU;Belgorodskaya Oblast’;"";2250
Bolshezadoyevskoye;43.8669;46.8267;Russia;RU;Dagestan;"";1641
Boltigen;46.6291;7.3911;Switzerland;CH;Bern;"";1262
Bolu;40.7333;31.6;Turkey;TR;Bolu;admin;205525
Bolvadin;38.7111;31.0486;Turkey;TR;Afyonkarahisar;minor;0
Bol’shaya Areshevka;44.1142;46.9253;Russia;RU;Dagestan;"";1565
Bol’shaya Atnya;56.25;49.45;Russia;RU;Tatarstan;"";3536
Bol’shaya Chernigovka;52.0983;50.8667;Russia;RU;Samarskaya Oblast’;"";6693
Bol’shaya Kudara;50.2039;107.0492;Russia;RU;Buryatiya;"";5712
Bol’shaya Martynovka;47.2742;41.6668;Russia;RU;Rostovskaya Oblast’;minor;0
Bol’shaya Sosnova;57.6734;54.6018;Russia;RU;Permskiy Kray;"";4864
Bol’shaya Urya;56.0267;95.4819;Russia;RU;Krasnoyarskiy Kray;"";1223
Bol’shaya Yelkhovka;54.2781;45.315;Russia;RU;Mordoviya;"";4171
Bol’sheust’ikinskoye;55.9453;58.2679;Russia;RU;Bashkortostan;"";7839
Bol’shiye Klyuchi;55.983;48.8038;Russia;RU;Tatarstan;"";2045
Bol’shoy Kamen’;43.1167;132.35;Russia;RU;Primorskiy Kray;"";38042
Bol’shoy Uluy;56.6533;90.5719;Russia;RU;Krasnoyarskiy Kray;"";3340
Bol’shoye Boldino;55.0039;45.3097;Russia;RU;Nizhegorodskaya Oblast’;"";5074
Bol’shoye Nagatkino;54.5167;47.9667;Russia;RU;Ul’yanovskaya Oblast’;"";5462
Bol’shoye Sorokino;56.6272;69.7911;Russia;RU;Tyumenskaya Oblast’;"";5317
Bol’shoye Uro;53.5439;109.8428;Russia;RU;Buryatiya;"";1160
Bonaduz;46.8164;9.4;Switzerland;CH;Graubünden;"";3330
Boncourt;47.5;7.0167;Switzerland;CH;Jura;"";1225
Bondari;52.95;42.0667;Russia;RU;Tambovskaya Oblast’;"";4052
Boniswil;47.3178;8.1858;Switzerland;CH;Aargau;"";1427
Bonstetten;47.3156;8.4692;Switzerland;CH;Zürich;"";5543
Boppelsen;47.4714;8.4033;Switzerland;CH;Zürich;"";1365
Bor;56.3603;44.0592;Russia;RU;Nizhegorodskaya Oblast’;"";78063
Bor;37.8833;34.5667;Turkey;TR;Niğde;minor;60335
Borex;46.3787;6.1781;Switzerland;CH;Vaud;"";1133
Borisoglebsk;51.3667;42.0833;Russia;RU;Voronezhskaya Oblast’;"";62669
Borisov;50.1753;26.6481;Ukraine;UA;Khmel’nyts’ka Oblast’;"";1491
Borisovka;43.8;131.8167;Russia;RU;Primorskiy Kray;"";2396
Borivtsi;48.5867;25.6361;Ukraine;UA;Chernivets’ka Oblast’;"";1601
Borki;49.9133;23.9178;Ukraine;UA;L’vivs’ka Oblast’;"";2203
Borlu;38.7529;28.4674;Turkey;TR;Manisa;minor;0
Bornova;38.4792;27.2399;Turkey;TR;İzmir;minor;0
Borodyanka;50.6439;29.9339;Ukraine;UA;Kyyivs’ka Oblast’;"";13230
Borokhiv;50.7811;25.4611;Ukraine;UA;Volyns’ka Oblast’;"";1054
Boromlya;50.6204;34.9723;Ukraine;UA;Sums’ka Oblast’;"";4490
Borova;50.1733;30.1039;Ukraine;UA;Kyyivs’ka Oblast’;"";7316
Borovichi;58.4;33.9167;Russia;RU;Novgorodskaya Oblast’;"";50144
Borovoye;54.6944;82.6303;Russia;RU;Novosibirskaya Oblast’;"";1694
Borovsk;55.2;36.4833;Russia;RU;Kaluzhskaya Oblast’;"";10966
Borovytsia;49.2433;32.4889;Ukraine;UA;Cherkas’ka Oblast’;"";1909
Borozenske;47.1786;33.4197;Ukraine;UA;Khersons’ka Oblast’;"";2024
Borshchivka;49.5082;36.9742;Ukraine;UA;Kharkivs’ka Oblast’;"";1292
Borynia;49.0778;22.9953;Ukraine;UA;L’vivs’ka Oblast’;"";1402
Boryslav;49.2881;23.4267;Ukraine;UA;L’vivs’ka Oblast’;"";37093
Boryspil;50.35;30.95;Ukraine;UA;Kyyivs’ka Oblast’;minor;62281
Borzhava;48.1564;22.7217;Ukraine;UA;Zakarpats’ka Oblast’;"";1502
Borzna;51.2333;32.4167;Ukraine;UA;Chernihivs’ka Oblast’;"";10205
Borzya;50.3833;116.5333;Russia;RU;Zabaykal’skiy Kray;"";28888
Borçka;41.3579;41.6658;Turkey;TR;Artvin;minor;0
Bossonnens;46.5167;6.85;Switzerland;CH;Fribourg;"";1505
Boswil;47.3011;8.3139;Switzerland;CH;Aargau;"";2837
Botashyurt;43.3069;46.5108;Russia;RU;Dagestan;"";3366
Botlikh;42.665;46.22;Russia;RU;Dagestan;"";12159
Bottens;46.6167;6.6667;Switzerland;CH;Vaud;"";1297
Bottighofen;47.6397;9.2014;Switzerland;CH;Thurgau;"";2226
Bottmingen;47.5236;7.5697;Switzerland;CH;Basel-Landschaft;"";6691
Boudry;46.95;6.8333;Switzerland;CH;Neuchâtel;"";6152
Boyabat;41.4689;34.7667;Turkey;TR;Sinop;minor;0
Boyalı;41.0271;33.3041;Turkey;TR;Kastamonu;minor;0
Boyarka;70.767;97.5;Russia;RU;Krasnoyarskiy Kray;"";35968
Boyarka;50.3292;30.2886;Ukraine;UA;Kyyivs’ka Oblast’;"";35411
Boyevo;51.3944;39.3197;Russia;RU;Voronezhskaya Oblast’;"";1961
Bozburun;36.6949;28.0434;Turkey;TR;Muğla;minor;0
Bozcaada;39.835;26.0697;Turkey;TR;Çanakkale;minor;0
Bozdoğan;37.6713;28.314;Turkey;TR;Aydın;minor;0
Bozhkivs’ke;49.6698;34.7583;Ukraine;UA;Poltavs’ka Oblast’;"";1214
Bozkurt;41.9577;34.0109;Turkey;TR;Kastamonu;minor;0
Bozkurt;37.8242;29.6097;Turkey;TR;Denizli;minor;0
Bozkır;37.1896;32.2474;Turkey;TR;Konya;minor;0
Bozova;37.3625;38.5267;Turkey;TR;Şanlıurfa;minor;0
Bozova;37.2161;30.2858;Turkey;TR;Antalya;minor;0
Bozoğlak;39.6229;38.8019;Turkey;TR;Erzincan;minor;0
Boztepe;40.1878;35.8875;Turkey;TR;Tokat;minor;0
Boztepe;39.2697;34.2611;Turkey;TR;Kırşehir;minor;0
Bozyazı;36.1049;32.9723;Turkey;TR;Mersin;minor;0
Bozüyük;39.9078;30.0367;Turkey;TR;Bilecik;minor;0
Boğaziçi;38.0347;27.5594;Turkey;TR;İzmir;minor;0
Boğazkale;40.0219;34.6095;Turkey;TR;Çorum;minor;0
Boğazkaya;41.45;35.8667;Turkey;TR;Samsun;minor;0
Boğazlıyan;39.1888;35.2454;Turkey;TR;Yozgat;minor;0
Braguny;43.4381;46.096;Russia;RU;Chechnya;"";3642
Brahin;51.787;30.2677;Belarus;BY;Homyel’skaya Voblasts’;minor;0
Brailiv;49.1053;28.1536;Ukraine;UA;Vinnyts’ka Oblast’;"";4574
Braslaw;55.6397;27.0397;Belarus;BY;Vitsyebskaya Voblasts’;minor;9390
Bratki;51.5899;41.4849;Russia;RU;Voronezhskaya Oblast’;"";1095
Bratsk;56.1667;101.6167;Russia;RU;Irkutskaya Oblast’;"";231602
Bratske;47.8636;31.5781;Ukraine;UA;Mykolayivs’ka Oblast’;minor;5313
Bratslav;48.8147;28.9447;Ukraine;UA;Vinnyts’ka Oblast’;"";5241
Breitenbach;47.4083;7.5443999999999996;Switzerland;CH;Solothurn;"";3854
Bremgarten;47.3528;8.34;Switzerland;CH;Aargau;minor;7765
Brest;52.0847;23.6569;Belarus;BY;Brestskaya Voblasts’;admin;340318
Breytovo;58.2993;37.8617;Russia;RU;Yaroslavskaya Oblast’;"";3308
Brianka;48.5133;38.6431;Ukraine;UA;Luhans’ka Oblast’;"";47512
Brienz;46.7497;8.0333;Switzerland;CH;Bern;"";3090
Brig-Glis;46.3159;7.9876000000000005;Switzerland;CH;Valais;minor;13109
Brislach;47.4188;7.5428;Switzerland;CH;Basel-Landschaft;"";1652
Brissago;46.1167;8.7;Switzerland;CH;Ticino;"";1773
Brittnau;47.2608;7.9472000000000005;Switzerland;CH;Aargau;"";3954
Broc;46.6;7.1;Switzerland;CH;Fribourg;"";2651
Brocēni;56.6833;22.5664;Latvia;LV;Brocēnu Novads;admin;2830
Brody;50.0781;25.1542;Ukraine;UA;L’vivs’ka Oblast’;"";23752
Brody;51.7639;24.5275;Ukraine;UA;Volyns’ka Oblast’;"";1255
Bronnaye;52.3158;30.4794;Belarus;BY;Homyel’skaya Voblasts’;"";1148
Bronnitsa;58.45;31.6667;Russia;RU;Novgorodskaya Oblast’;"";2627
Bronnitsy;55.422;38.2631;Russia;RU;Moskovskaya Oblast’;"";22567
Bronschhofen;47.4831;9.0331;Switzerland;CH;Sankt Gallen;"";4515
Broshniv-Osada;48.9994;24.1814;Ukraine;UA;Ivano-Frankivs’ka Oblast’;"";5557
Brovary;50.5114;30.7903;Ukraine;UA;Kyyivs’ka Oblast’;minor;102856
Brugg;47.4864;8.2083;Switzerland;CH;Aargau;"";11129
Brusio;46.2555;10.119;Switzerland;CH;Graubünden;"";1114
Brusyliv;50.2833;29.5333;Ukraine;UA;Zhytomyrs’ka Oblast’;"";4914
Bryansk;53.25;34.3667;Russia;RU;Bryanskaya Oblast’;admin;406553
Bryansk;52.0261;106.8483;Russia;RU;Buryatiya;"";1075
Brylivka;46.425;33.1511;Ukraine;UA;Khersons’ka Oblast’;"";4339
Bryukhovetskaya;45.806;38.9996;Russia;RU;Krasnodarskiy Kray;minor;0
Bryukhovychi;49.9;23.9436;Ukraine;UA;L’vivs’ka Oblast’;"";5400
Brändö;60.4117;21.0453;Finland;FI;Åland;minor;515
Brügg;47.1264;7.2817;Switzerland;CH;Bern;"";4388
Brütten;47.4731;8.6744;Switzerland;CH;Zürich;"";2016
Bubendorf;47.4497;7.7364;Switzerland;CH;Basel-Landschaft;"";4389
Bubikon;47.2694;8.8203;Switzerland;CH;Zürich;"";7194
Buca;38.3983;27.1666;Turkey;TR;İzmir;minor;0
Bucak;37.4592;30.595;Turkey;TR;Burdur;minor;64943
Bucak;37.8693;39.062;Turkey;TR;Şanlıurfa;minor;0
Bucakkışla;36.9539;33.0267;Turkey;TR;Karaman;minor;0
Bucha;50.5464;30.235;Ukraine;UA;Kyyivs’ka Oblast’;minor;35162
Buchach;49.0647;25.3872;Ukraine;UA;Ternopil’s’ka Oblast’;"";12511
Buchegg;47.1361;7.4764;Switzerland;CH;Solothurn;"";2580
Buchholterberg;46.8164;7.6833;Switzerland;CH;Bern;"";1526
Buchrain;47.0953;8.3475;Switzerland;CH;Luzern;"";6116
Buchs;47.1656;9.4711;Switzerland;CH;Sankt Gallen;"";12612
Buchs;47.3889;8.0747;Switzerland;CH;Aargau;"";7966
Buchs;47.4589;8.4378;Switzerland;CH;Zürich;"";6303
Buda-Kashalyova;52.7167;30.5667;Belarus;BY;Homyel’skaya Voblasts’;minor;8850
Budy;48.4669;29.2331;Ukraine;UA;Vinnyts’ka Oblast’;"";1290
Budënnovsk;44.7833;44.15;Russia;RU;Stavropol’skiy Kray;"";62495
Bugulma;54.5333;52.7833;Russia;RU;Tatarstan;"";86085
Buguruslan;53.6167;52.4167;Russia;RU;Orenburgskaya Oblast’;"";49245
Buharkent;37.964;28.7427;Turkey;TR;Aydın;minor;0
Buhas;47.6347;37.5614;Ukraine;UA;Donets’ka Oblast’;"";1449
Buinsk;54.9667;48.2833;Russia;RU;Tatarstan;"";20854
Bukachacha;52.9833;116.9166;Russia;RU;Zabaykal’skiy Kray;"";3372
Bukachivtsi;49.2583;24.4972;Ukraine;UA;Ivano-Frankivs’ka Oblast’;"";1221
Bulakhivka;48.5995;35.6663;Ukraine;UA;Dnipropetrovs’ka Oblast’;"";2128
Bulancak;40.938;38.2315;Turkey;TR;Giresun;minor;0
Bulanikha;52.7936;84.9347;Russia;RU;Altayskiy Kray;"";2463
Bulanık;39.0866;42.2716;Turkey;TR;Muş;minor;0
Buldan;38.045;28.8306;Turkey;TR;Denizli;minor;0
Bulgakovo;54.5;55.9;Russia;RU;Bashkortostan;"";3591
Bulle;46.6167;7.05;Switzerland;CH;Fribourg;"";22709
Bulucan;39.7025;37.7597;Turkey;TR;Sivas;minor;0
Buochs;46.9746;8.4207;Switzerland;CH;Nidwalden;"";5312
Burashevo;56.7333;35.8811;Russia;RU;Tverskaya Oblast’;"";1412
Burayevo;55.8407;55.4083;Russia;RU;Bashkortostan;"";9522
Burdur;37.7167;30.2833;Turkey;TR;Burdur;admin;113077
Burg;47.2372;8.1819;Switzerland;CH;Aargau;"";1023
Burgdorf;47.0567;7.6264;Switzerland;CH;Bern;"";16280
Burgistein;46.7921;7.5032;Switzerland;CH;Bern;"";1096
Burhaniye;39.5004;26.9727;Turkey;TR;Balıkesir;minor;0
Buribay;51.9617;58.1592;Russia;RU;Bashkortostan;"";4553
Burkikhan;41.8078;47.5375;Russia;RU;Dagestan;"";1056
Burlatskoye;45.0564;43.635;Russia;RU;Stavropol’skiy Kray;"";3193
Bursa;40.1833;29.0667;Turkey;TR;Bursa;admin;2901396
Burshtyn;49.26;24.635;Ukraine;UA;Ivano-Frankivs’ka Oblast’;"";15039
Burtnieki;57.6947;25.275;Latvia;LV;Burtnieku Novads;admin;418
Burtunay;42.9907;46.6314;Russia;RU;Dagestan;"";4484
Burç;37.0136;37.1791;Turkey;TR;Gaziantep;minor;0
Bushtyno;48.0503;23.4894;Ukraine;UA;Zakarpats’ka Oblast’;"";8562
Busk;49.9667;24.6167;Ukraine;UA;L’vivs’ka Oblast’;"";8624
Bussy;46.55;6.55;Switzerland;CH;Vaud;"";8736
Butka;56.7167;63.7833;Russia;RU;Sverdlovskaya Oblast’;"";3077
Buttisholz;47.1136;8.0944;Switzerland;CH;Luzern;"";3294
Buttwil;47.2677;8.3111;Switzerland;CH;Aargau;"";1228
Buturlinovka;50.825;40.5889;Russia;RU;Voronezhskaya Oblast’;"";24319
Buus;47.5053;7.8644;Switzerland;CH;Basel-Landschaft;"";1066
Buy;58.4833;41.5167;Russia;RU;Kostromskaya Oblast’;"";23809
Buynaksk;42.8167;47.1167;Russia;RU;Dagestan;minor;65080
Buzdyak;54.5711;54.5308;Russia;RU;Bashkortostan;"";10323
Buzovna;40.5167;50.1167;Azerbaijan;AZ;Bakı;"";31500
Buzovyazy;54.2917;55.8167;Russia;RU;Bashkortostan;"";1492
Buzovytsia;48.5014;26.9275;Ukraine;UA;Chernivets’ka Oblast’;"";1642
Buzuluk;52.7667;52.2667;Russia;RU;Orenburgskaya Oblast’;"";86316
Buzynove;46.9742;30.4869;Ukraine;UA;Odes’ka Oblast’;"";1077
Buğdaylı;40.2189;27.7706;Turkey;TR;Balıkesir;minor;0
Byalynichy;53.9956;29.709600000000002;Belarus;BY;Mahilyowskaya Voblasts’;minor;9913
Byaroza;52.55;24.9667;Belarus;BY;Brestskaya Voblasts’;minor;28619
Byarozawka;53.7167;25.5;Belarus;BY;Hrodzyenskaya Voblasts’;"";10081
Byelaazyorsk;52.45;25.1667;Belarus;BY;Brestskaya Voblasts’;"";11115
Byerazino;53.8333;28.9833;Belarus;BY;Minskaya Voblasts’;"";11450
Bykhaw;53.521;30.2454;Belarus;BY;Mahilyowskaya Voblasts’;minor;0
Bykivka;50.2928;27.9831;Ukraine;UA;Zhytomyrs’ka Oblast’;"";1734
Byngi;57.5411;60.2969;Russia;RU;Sverdlovskaya Oblast’;"";2277
Byrlivka;50.0853;32.0725;Ukraine;UA;Cherkas’ka Oblast’;"";1729
Bystryk;49.7364;29.1436;Ukraine;UA;Zhytomyrs’ka Oblast’;"";1557
Bytkiv;48.6244;24.4858;Ukraine;UA;Ivano-Frankivs’ka Oblast’;"";4389
Bzhedugkhabl;44.9767;39.7069;Russia;RU;Adygeya;"";1068
Bäretswil;47.3369;8.8575;Switzerland;CH;Zürich;"";5026
Bäriswil;47.0167;7.5333;Switzerland;CH;Bern;"";1062
Bätterkinden;47.1333;7.5333;Switzerland;CH;Bern;"";3251
Bättwil;47.5;7.5167;Switzerland;CH;Solothurn;"";1186
Bölükyazı;38.3275;42.1745;Turkey;TR;Bitlis;minor;0
Bönigen;46.6864;7.8946;Switzerland;CH;Bern;"";2535
Bösingen;46.9;7.2333;Switzerland;CH;Fribourg;"";3408
Böttstein;47.5567;8.2247;Switzerland;CH;Aargau;"";3952
Böğürtlen;37.1663;38.0811;Turkey;TR;Şanlıurfa;minor;0
Bühler;47.3728;9.4211;Switzerland;CH;Appenzell Ausserrhoden;"";1798
Bülach;47.5189;8.5422;Switzerland;CH;Zürich;"";20046
Bünyan;38.8463;35.8603;Turkey;TR;Kayseri;minor;0
Bünzen;47.3108;8.3261;Switzerland;CH;Aargau;"";1110
Büren;47.4511;7.6708;Switzerland;CH;Solothurn;"";1042
Büren an der Aare;47.1403;7.3722;Switzerland;CH;Bern;"";3580
Bürglen;46.875;8.6628;Switzerland;CH;Uri;"";3976
Bürglen;47.5497;9.1497;Switzerland;CH;Thurgau;"";3841
Büron;47.2133;8.0947;Switzerland;CH;Luzern;"";2540
Büsserach;47.3914;7.5403;Switzerland;CH;Solothurn;"";2296
Büyükderbent;40.7075;30.1143;Turkey;TR;Kocaeli;minor;0
Büyükkarıştıran;41.3003;27.5453;Turkey;TR;Kırklareli;minor;0
Büyükköy;41.0149;40.673;Turkey;TR;Rize;minor;0
Büyükorhan;39.771;28.8861;Turkey;TR;Bursa;minor;0
Büyükyurt;39.2503;39.8692;Turkey;TR;Tunceli;minor;0
Büyükçekmece;41.0128;28.5382;Turkey;TR;İstanbul;minor;0
Bēne;56.4831;23.0622;Latvia;LV;Auces Novads;"";1203
Bərdə;40.3831;47.1186;Azerbaijan;AZ;Bərdə;admin;38500
Cadempino;46.0333;8.9333;Switzerland;CH;Ticino;"";1530
Cadenazzo;46.15;8.95;Switzerland;CH;Ticino;"";2932
Camili;41.4784;41.8982;Turkey;TR;Artvin;minor;0
Canobbio;46.0333;8.9667;Switzerland;CH;Ticino;"";2249
Carnikava;57.1333;24.2833;Latvia;LV;Carnikavas Novads;admin;4812
Carouge;46.1817;6.1404;Switzerland;CH;Genève;"";22336
Caslano;45.9699;8.8795;Switzerland;CH;Ticino;"";4356
Castel San Pietro;45.8823;9.0153;Switzerland;CH;Ticino;"";2159
Cazis;46.7372;9.4267;Switzerland;CH;Graubünden;"";2223
Celâlli;39.6925;37.4239;Turkey;TR;Sivas;minor;0
Cemilbey;40.3453;35.0514;Turkey;TR;Çorum;minor;0
Cengerli;39.7943;38.8481;Turkey;TR;Erzincan;minor;0
Cernier;47.0606;6.9021;Switzerland;CH;Neuchâtel;minor;0
Cesvaine;56.9683;26.3067;Latvia;LV;Cesvaines Novads;admin;1239
Cevio;46.3783;8.542300000000001;Switzerland;CH;Ticino;"";1159
Cevizli;37.1969;31.7633;Turkey;TR;Antalya;minor;0
Cevizlik;38.1755;42.226;Turkey;TR;Siirt;minor;0
Ceyhan;37.0247;35.8175;Turkey;TR;Adana;minor;0
Ceylanpınar;36.9194;39.905;Turkey;TR;Şanlıurfa;minor;87684
Chaa-Khol’;51.515;92.332;Russia;RU;Tyva;"";3346
Chabany;50.34;30.4228;Ukraine;UA;Kyyivs’ka Oblast’;"";4641
Chachersk;52.9164;30.9179;Belarus;BY;Homyel’skaya Voblasts’;minor;0
Chadan;51.2833;91.5667;Russia;RU;Tyva;"";9139
Chalais;46.2477;7.5302;Switzerland;CH;Valais;"";3524
Chaltyr;47.2848;39.4823;Russia;RU;Rostovskaya Oblast’;minor;15334
Chamoson;46.2;7.2167;Switzerland;CH;Valais;"";3897
Champagne;46.8358;6.6516;Switzerland;CH;Vaud;"";1035
Champéry;46.1751;6.8713999999999995;Switzerland;CH;Valais;"";1336
Chancy;46.1476;5.9789;Switzerland;CH;Genève;"";1686
Chapayevo;43.1106;46.4858;Russia;RU;Dagestan;"";2903
Chapayevsk;52.9833;49.7167;Russia;RU;Samarskaya Oblast’;"";72778
Chaplygin;53.2417;39.9667;Russia;RU;Lipetskaya Oblast’;"";11802
Chaplyne;48.1273;36.2374;Ukraine;UA;Dnipropetrovs’ka Oblast’;"";3783
Chaplynka;48.7348;34.7726;Ukraine;UA;Dnipropetrovs’ka Oblast’;"";1978
Chaplynka;46.3629;33.5302;Ukraine;UA;Khersons’ka Oblast’;minor;0
Chardonne;46.4886;6.8216;Switzerland;CH;Vaud;"";2944
Charrat;46.1167;7.1333;Switzerland;CH;Valais;"";1849
Charyshskiy;52.1555;83.303;Russia;RU;Altayskiy Kray;"";1243
Chashniki;54.8584;29.1608;Belarus;BY;Vitsyebskaya Voblasts’;minor;0
Chavannes-de-Bogis;46.35;6.1667;Switzerland;CH;Vaud;"";1285
Chavannes-près-Renens;46.5282;6.5762;Switzerland;CH;Vaud;"";7724
Chavornay;46.7065;6.569;Switzerland;CH;Vaud;"";5000
Chavusy;53.8098;30.9717;Belarus;BY;Mahilyowskaya Voblasts’;minor;0
Chaykovskiy;56.7667;54.1167;Russia;RU;Permskiy Kray;"";83077
Chebarkul;54.9778;60.37;Russia;RU;Chelyabinskaya Oblast’;"";40378
Cheboksary;56.1333;47.25;Russia;RU;Chuvashiya;admin;489498
Chechelnyk;48.2122;29.3622;Ukraine;UA;Vinnyts’ka Oblast’;minor;5002
Chechen-Aul;43.2;45.7889;Russia;RU;Chechnya;"";9300
Chegdomyn;51.1178;133.0241;Russia;RU;Khabarovskiy Kray;"";14855
Chegem Vtoroy;43.6022;43.6242;Russia;RU;Kabardino-Balkariya;"";11575
Chekhov;55.1481;37.4769;Russia;RU;Moskovskaya Oblast’;"";70548
Chekmagush;55.1411;54.65;Russia;RU;Bashkortostan;"";11382
Chelyabinsk;55.15;61.4;Russia;RU;Chelyabinskaya Oblast’;admin;1202371
Chemal;51.4111;86.005;Russia;RU;Altay;"";4011
Chemer;51.0989;31.2186;Ukraine;UA;Chernihivs’ka Oblast’;"";1971
Chemerivtsi;49.0;26.3667;Ukraine;UA;Khmel’nyts’ka Oblast’;"";5200
Chemodanovka;53.2353;45.2475;Russia;RU;Penzenskaya Oblast’;"";6133
Cherbi;51.9;94.6;Russia;RU;Tyva;"";1136
Cherdakly;54.3594;48.845;Russia;RU;Ul’yanovskaya Oblast’;"";3824
Cherdyn;60.4;56.4833;Russia;RU;Permskiy Kray;"";4687
Cheremkhovo;53.15;103.0667;Russia;RU;Irkutskaya Oblast’;"";50819
Cheremnoye;53.1683;83.215;Russia;RU;Altayskiy Kray;"";4624
Cherepanovo;54.2167;83.3667;Russia;RU;Novosibirskaya Oblast’;"";19610
Cherepashyntsi;49.5325;28.5928;Ukraine;UA;Vinnyts’ka Oblast’;"";1571
Cherepovets;59.1333;37.9167;Russia;RU;Vologodskaya Oblast’;"";318856
Cherkaske;48.7008;35.3844;Ukraine;UA;Dnipropetrovs’ka Oblast’;"";4252
Cherkasy;49.4444;32.0597;Ukraine;UA;Cherkas’ka Oblast’;admin;276360
Cherkessk;44.2222;42.0575;Russia;RU;Karachayevo-Cherkesiya;admin;122395
Cherkizovo;55.9661;37.7978;Russia;RU;Moskovskaya Oblast’;"";3336
Cherlak;54.1605;74.82;Russia;RU;Omskaya Oblast’;"";12122
Chermen;43.15;44.7333;Russia;RU;North Ossetia;"";8508
Chermoz;58.7833;56.15;Russia;RU;Permskiy Kray;"";3457
Chernechchyna;49.1192;34.7703;Ukraine;UA;Dnipropetrovs’ka Oblast’;"";1077
Chernelytsya;48.8111;25.43;Ukraine;UA;Ivano-Frankivs’ka Oblast’;"";1564
Cherneya;56.2497;28.5426;Russia;RU;Pskovskaya Oblast’;minor;0
Chernigovka;44.3333;132.5667;Russia;RU;Primorskiy Kray;"";13046
Chernihiv;51.4939;31.2947;Ukraine;UA;Chernihivs’ka Oblast’;admin;294522
Chernihivka;47.1942;36.2023;Ukraine;UA;Zaporiz’ka Oblast’;minor;5813
Chernivtsi;48.2908;25.9344;Ukraine;UA;Chernivets’ka Oblast’;admin;266550
Chernivtsi;48.5425;28.1122;Ukraine;UA;Vinnyts’ka Oblast’;minor;2725
Chernogolovka;56.0147;38.3897;Russia;RU;Moskovskaya Oblast’;"";21342
Chernogorsk;53.8167;91.2833;Russia;RU;Khakasiya;"";75419
Chernokozovo;43.6755;45.353;Russia;RU;Chechnya;"";3085
Chernolesovskiy;54.8586;55.8172;Russia;RU;Bashkortostan;"";1118
Chernolesskoye;44.7156;43.7133;Russia;RU;Stavropol’skiy Kray;"";5747
Chernukha;55.6011;43.7628;Russia;RU;Nizhegorodskaya Oblast’;"";4002
Chernushka;56.5;56.0833;Russia;RU;Permskiy Kray;"";32952
Chernyakhovsk;54.6333;21.8167;Russia;RU;Kaliningradskaya Oblast’;minor;35888
Chernyatin;49.0475;27.9089;Ukraine;UA;Vinnyts’ka Oblast’;"";1677
Chernyshevskiy;63.0128;112.4714;Russia;RU;Sakha (Yakutiya);"";5137
Cherskiy;68.7501;161.33;Russia;RU;Sakha (Yakutiya);"";3707
Chertkovo;49.3845;40.1472;Russia;RU;Rostovskaya Oblast’;minor;0
Chertolino;56.2044;33.9008;Russia;RU;Tverskaya Oblast’;"";1498
Chervone;49.9497;28.8686;Ukraine;UA;Zhytomyrs’ka Oblast’;"";2859
Chervone;49.8028;24.7656;Ukraine;UA;L’vivs’ka Oblast’;"";1738
Chervonohrad;50.3842;24.2265;Ukraine;UA;L’vivs’ka Oblast’;minor;0
Chervonohryhorivka;47.6233;34.5309;Ukraine;UA;Dnipropetrovs’ka Oblast’;"";6348
Chervonyy Oskil;49.1744;37.428;Ukraine;UA;Kharkivs’ka Oblast’;"";3217
Cherykaw;53.5667;31.3667;Belarus;BY;Mahilyowskaya Voblasts’;minor;7910
Cheseaux-sur-Lausanne;46.5833;6.6;Switzerland;CH;Vaud;"";4342
Chesmenka;51.2903;40.1703;Russia;RU;Voronezhskaya Oblast’;"";1112
Chesnokovka;54.6097;55.9431;Russia;RU;Bashkortostan;"";3333
Chexbres;46.4843;6.7801;Switzerland;CH;Vaud;"";2238
Chiasso;45.8353;9.032;Switzerland;CH;Ticino;"";7975
Chikola;43.1915;43.9183;Russia;RU;North Ossetia;minor;0
Chippis;46.2833;7.5333;Switzerland;CH;Valais;"";1617
Chistoozerka;52.7708;80.7774;Russia;RU;Altayskiy Kray;"";1281
Chistopol;55.3648;50.6407;Russia;RU;Tatarstan;"";62200
Chita;52.0333;113.5;Russia;RU;Zabaykal’skiy Kray;admin;347088
Chkalove;47.695;34.3216;Ukraine;UA;Dnipropetrovs’ka Oblast’;"";1996
Chkalove;47.0722;34.7122;Ukraine;UA;Zaporiz’ka Oblast’;"";1100
Chkalovsk;56.7667;43.25;Russia;RU;Nizhegorodskaya Oblast’;"";11462
Chkalovskoye;44.8375;133.0417;Russia;RU;Primorskiy Kray;"";3828
Chokh;42.3156;47.03;Russia;RU;Dagestan;"";3223
Chokurdakh;70.6183;147.8946;Russia;RU;Sakha (Yakutiya);"";2506
Chop;48.4333;22.2;Ukraine;UA;Zakarpats’ka Oblast’;"";8897
Chopovychi;50.8333;28.9525;Ukraine;UA;Zhytomyrs’ka Oblast’;"";1888
Chornivka;48.4186;26.0106;Ukraine;UA;Chernivets’ka Oblast’;"";2364
Chornoholova;48.8508;22.6069;Ukraine;UA;Zakarpats’ka Oblast’;"";1348
Chornomorsk;46.3017;30.6569;Ukraine;UA;Odes’ka Oblast’;"";59800
Chornomorske;45.5039;32.7062;Ukraine;UA;Krym, Avtonomna Respublika;minor;0
Chornotysiv;48.0783;23.0536;Ukraine;UA;Zakarpats’ka Oblast’;"";2232
Chornukhy;50.2699;32.9476;Ukraine;UA;Poltavs’ka Oblast’;"";2491
Chornyy Potik;48.1808;22.9067;Ukraine;UA;Zakarpats’ka Oblast’;"";1074
Chortkiv;49.0167;25.8;Ukraine;UA;Ternopil’s’ka Oblast’;minor;29169
Chortomlyk;47.6232;34.142;Ukraine;UA;Dnipropetrovs’ka Oblast’;"";1345
Choulex;46.2263;6.2238;Switzerland;CH;Genève;"";1179
Chudniv;50.0528;28.0969;Ukraine;UA;Zhytomyrs’ka Oblast’;"";5583
Chudovo;59.1281;31.6592;Russia;RU;Novgorodskaya Oblast’;"";14394
Chuhuiv;49.8353;36.6756;Ukraine;UA;Kharkivs’ka Oblast’;minor;33144
Chukaluvka;48.8681;24.6897;Ukraine;UA;Ivano-Frankivs’ka Oblast’;"";1407
Chukhloma;58.75;42.7;Russia;RU;Kostromskaya Oblast’;"";5015
Chulym;55.1;80.9667;Russia;RU;Novosibirskaya Oblast’;"";11216
Chumaky;48.6579;34.8739;Ukraine;UA;Dnipropetrovs’ka Oblast’;"";1977
Chumikan;54.7;135.3;Russia;RU;Khabarovskiy Kray;"";1091
Chur;46.8521;9.5297;Switzerland;CH;Graubünden;admin;35038
Churwalden;46.7808;9.5433;Switzerland;CH;Graubünden;"";1949
Chusovoy;58.2833;57.8167;Russia;RU;Permskiy Kray;"";44779
Chuvashskiy Suskan;53.8839;49.2256;Russia;RU;Ul’yanovskaya Oblast’;"";2181
Chyhyryn;49.0833;32.6667;Ukraine;UA;Cherkas’ka Oblast’;minor;8962
Chynadiyovo;48.4833;22.8333;Ukraine;UA;Zakarpats’ka Oblast’;"";6860
Chyshky;49.7975;24.1689;Ukraine;UA;L’vivs’ka Oblast’;"";2426
Château-d’Oex;46.4667;7.1167;Switzerland;CH;Vaud;"";3459
Châtel-Saint-Denis;46.5269;6.9011;Switzerland;CH;Fribourg;"";6969
Chéserex;46.4167;6.1667;Switzerland;CH;Vaud;"";1221
Chêne-Bougeries;46.1833;6.1833;Switzerland;CH;Genève;"";12215
Chërkëkh;62.1861;133.2292;Russia;RU;Sakha (Yakutiya);"";1152
Chërnyy Yar;48.0603;46.1086;Russia;RU;Astrakhanskaya Oblast’;"";7621
Cibla;56.55;27.8839;Latvia;LV;Ciblas Novads;admin;161
Cide;41.8921;33.0044;Turkey;TR;Kastamonu;minor;0
Cihanbeyli;38.6607;32.9244;Turkey;TR;Konya;minor;0
Cizre;37.325;42.1958;Turkey;TR;Şırnak;minor;143124
Coldrerio;45.85;8.9833;Switzerland;CH;Ticino;"";2939
Cologny;46.2167;6.1833;Switzerland;CH;Genève;"";5570
Colombier;46.9667;6.8667;Switzerland;CH;Neuchâtel;"";5547
Comano;46.0333;8.95;Switzerland;CH;Ticino;"";2035
Commugny;46.3167;6.1833;Switzerland;CH;Vaud;"";2874
Confignon;46.1834;6.0833;Switzerland;CH;Genève;"";4627
Conthey;46.2725;7.2548;Switzerland;CH;Valais;"";8691
Coppet;46.3214;6.1891;Switzerland;CH;Vaud;"";3152
Corcelles-près-Payerne;46.8333;6.9667;Switzerland;CH;Vaud;"";2480
Corgémont;47.1911;7.1386;Switzerland;CH;Bern;"";1706
Corminboeuf;46.8;7.1;Switzerland;CH;Fribourg;"";2695
Cornaux;47.0387;7.0199;Switzerland;CH;Neuchâtel;"";1563
Cornol;47.4;7.1667;Switzerland;CH;Jura;"";1010
Corseaux;46.4667;6.8333;Switzerland;CH;Vaud;"";2282
Corsier;46.2621;6.2283;Switzerland;CH;Genève;"";2108
Corsier-sur-Vevey;46.4667;6.85;Switzerland;CH;Vaud;"";3390
Cortaillod;46.944;6.8479;Switzerland;CH;Neuchâtel;"";4729
Cottens;46.75;7.0333;Switzerland;CH;Fribourg;"";1509
Courgenay;47.4;7.1333;Switzerland;CH;Jura;"";2329
Courgevaux;46.9065;7.1121;Switzerland;CH;Fribourg;"";1420
Courrendlin;47.3333;7.3667;Switzerland;CH;Jura;"";2995
Courroux;47.3692;7.393;Switzerland;CH;Jura;"";3314
Court;47.2403;7.3375;Switzerland;CH;Bern;"";1427
Courtelary;47.1792;7.0722;Switzerland;CH;Bern;minor;1437
Courtepin;46.8667;7.1167;Switzerland;CH;Fribourg;"";5451
Courtételle;47.3309;7.3176;Switzerland;CH;Jura;"";2610
Crassier;46.3667;6.1667;Switzerland;CH;Vaud;"";1177
Cressier;47.0508;7.0356;Switzerland;CH;Neuchâtel;"";1886
Cressier;46.9;7.1333;Switzerland;CH;Fribourg;"";1001
Crissier;46.55;6.5833;Switzerland;CH;Vaud;"";7930
Cudrefin;46.9521;7.0271;Switzerland;CH;Vaud;"";1632
Cugy;46.5815;6.6437;Switzerland;CH;Vaud;"";2737
Cugy;46.8147;6.8908000000000005;Switzerland;CH;Fribourg;"";1752
Culfa;38.955799999999996;45.6308;Azerbaijan;AZ;Culfa;minor;12500
Cumayeri;40.8739;30.9509;Turkey;TR;Düzce;minor;0
Cumaçay;39.9152;43.1865;Turkey;TR;Ağrı;minor;0
Cureglia;46.0333;8.95;Switzerland;CH;Ticino;"";1385
Cēsis;57.3131;25.2747;Latvia;LV;Cēsu Novads;admin;14815
Cəbrayıl;39.4;47.0261;Azerbaijan;AZ;Cəbrayıl;admin;6300
Cəlilabad;39.2042;48.4958;Azerbaijan;AZ;Cəlilabad;admin;25846
Dachsen;47.6656;8.6186;Switzerland;CH;Zürich;"";1931
Daday;41.4787;33.4667;Turkey;TR;Kastamonu;minor;0
Dadaşköy;39.9449;41.2546;Turkey;TR;Erzurum;minor;0
Dagda;56.0947;27.5369;Latvia;LV;Dagdas Novads;admin;1895
Dagestanskiye Ogni;42.1167;48.2;Russia;RU;Dagestan;"";29716
Dagmersellen;47.2131;7.9894;Switzerland;CH;Luzern;"";5503
Daillens;46.6167;6.55;Switzerland;CH;Vaud;"";1027
Dalakovo;43.2375;44.5897;Russia;RU;Ingushetiya;"";7158
Dalaman;36.7659;28.8028;Turkey;TR;Muğla;minor;0
Dallenwil;46.9344;8.3917;Switzerland;CH;Nidwalden;"";1845
Dallıbahçe;39.1333;39.8792;Turkey;TR;Tunceli;minor;0
Dalmatovo;56.2667;62.9167;Russia;RU;Kurganskaya Oblast’;"";12631
Dalnegorsk;44.5539;135.5661;Russia;RU;Primorskiy Kray;"";37519
Dalnerechensk;45.9333;133.7333;Russia;RU;Primorskiy Kray;"";26378
Dalsbruk;60.0333;22.5167;Finland;FI;Varsinais-Suomi;minor;0
Dal’neye;46.9931;142.6733;Russia;RU;Sakhalinskaya Oblast’;"";2039
Dal’niy;53.1453;157.6976;Russia;RU;Kamchatskiy Kray;"";1265
Damal;41.3414;42.8368;Turkey;TR;Ardahan;minor;0
Dambaslar;41.2242;27.2481;Turkey;TR;Tekirdağ;minor;0
Damlacık;37.9142;38.6539;Turkey;TR;Adıyaman;minor;0
Danilov;58.1833;40.1833;Russia;RU;Yaroslavskaya Oblast’;"";14746
Danişment;39.8692;27.6331;Turkey;TR;Balıkesir;minor;0
Danişment;39.1715;38.1985;Turkey;TR;Sivas;minor;0
Dankov;53.25;39.15;Russia;RU;Lipetskaya Oblast’;"";19017
Dardagny;46.1952;5.9946;Switzerland;CH;Genève;"";1864
Darende;38.5458;37.5058;Turkey;TR;Malatya;minor;0
Dargeçit;37.5462;41.7165;Turkey;TR;Mardin;minor;0
Darkushkazmalyar;41.8062;48.3898;Russia;RU;Dagestan;"";2803
Darıca;40.7797;29.3945;Turkey;TR;Kocaeli;minor;0
Darıca;40.0206;27.8637;Turkey;TR;Balıkesir;minor;0
Darıkent;38.9625;39.8079;Turkey;TR;Tunceli;minor;0
Dashiv;49.0047;29.4278;Ukraine;UA;Vinnyts’ka Oblast’;"";3887
Datça;36.7274;27.6848;Turkey;TR;Muğla;minor;0
Daugavpils;55.8714;26.5161;Latvia;LV;Daugavpils Novads;admin;80627
Davlekanovo;54.2167;55.0333;Russia;RU;Bashkortostan;"";23499
Davos;46.8091;9.8398;Switzerland;CH;Graubünden;minor;10862
Davulga;38.9792;31.3714;Turkey;TR;Afyonkarahisar;minor;0
Davutlar;37.7333;27.3;Turkey;TR;Aydın;minor;0
Davyd-Haradok;52.0556;27.2139;Belarus;BY;Brestskaya Voblasts’;"";5919
Dazkırı;37.9186;29.8606;Turkey;TR;Afyonkarahisar;minor;0
Dağ;37.1931;30.5042;Turkey;TR;Antalya;minor;0
Dağardı;39.4308;28.9956;Turkey;TR;Kütahya;minor;0
Dağbaşı;40.7276;39.9118;Turkey;TR;Trabzon;minor;0
Dağbaşı;37.8983;39.3337;Turkey;TR;Şanlıurfa;minor;0
Dağkızılca;38.311;27.3908;Turkey;TR;İzmir;minor;0
Dağlıca;37.3666;44.0853;Turkey;TR;Hakkâri;minor;0
Dağyolu;39.5402;39.907;Turkey;TR;Tunceli;minor;0
Daşkəsən;40.5181;46.0828;Azerbaijan;AZ;Daşkəsən;admin;10700
De-Kastri;51.4666;140.7833;Russia;RU;Khabarovskiy Kray;"";3615
Debesy;57.65;53.8167;Russia;RU;Udmurtiya;minor;5778
Dede-Ichetuy;50.7333;105.4333;Russia;RU;Buryatiya;"";1015
Dedeli;39.1744;43.0552;Turkey;TR;Ağrı;minor;0
Dedino;56.2446;28.2506;Russia;RU;Pskovskaya Oblast’;minor;0
Dedovsk;55.8667;37.1333;Russia;RU;Moskovskaya Oblast’;"";29738
Degersheim;47.3667;9.1997;Switzerland;CH;Sankt Gallen;"";4129
Degtyarka;53.3492;79.3556;Russia;RU;Altayskiy Kray;"";1303
Degtyarsk;56.7;60.1;Russia;RU;Sverdlovskaya Oblast’;"";16001
Deitingen;47.2158;7.6236;Switzerland;CH;Solothurn;"";2207
Delen;45.9125;29.1878;Ukraine;UA;Odes’ka Oblast’;"";2606
Deleva;48.9117;25.2208;Ukraine;UA;Ivano-Frankivs’ka Oblast’;"";1712
Deliatyn;48.5286;24.6236;Ukraine;UA;Ivano-Frankivs’ka Oblast’;"";8386
Delice;39.9537;34.0259;Turkey;TR;Kırıkkale;minor;0
Deliktaş;39.3416;37.2038;Turkey;TR;Sivas;minor;0
Deliçay;39.0816;43.4855;Turkey;TR;Van;minor;0
Delémont;47.3653;7.3472;Switzerland;CH;Jura;admin;12682
Demidov;55.2667;31.5167;Russia;RU;Smolenskaya Oblast’;"";6213
Demirci;37.4127;39.7684;Turkey;TR;Şanlıurfa;minor;0
Demirci;39.0461;28.6589;Turkey;TR;Manisa;minor;0
Demirkent;40.8791;41.7295;Turkey;TR;Artvin;minor;0
Demirköy;41.8251;27.7597;Turkey;TR;Kırklareli;minor;0
Demirtaş;40.2719;29.0983;Turkey;TR;Bursa;minor;0
Demirtaş;36.4261;32.1925;Turkey;TR;Antalya;minor;0
Demirözü;40.1602;39.8924;Turkey;TR;Bayburt;minor;0
Demre;36.2444;29.985;Turkey;TR;Antalya;minor;0
Demuryne;48.1781;36.483;Ukraine;UA;Dnipropetrovs’ka Oblast’;"";1021
Denges;46.5234;6.539;Switzerland;CH;Vaud;"";1611
Denizli;37.7731;29.0878;Turkey;TR;Denizli;admin;963464
Denyshi;50.2153;28.4078;Ukraine;UA;Zhytomyrs’ka Oblast’;"";1411
Derbent;42.0692;48.2958;Russia;RU;Dagestan;minor;123720
Derbent;38.0142;32.0164;Turkey;TR;Konya;minor;0
Derbetovka;45.8056;43.0886;Russia;RU;Stavropol’skiy Kray;"";1911
Dere;38.9829;39.3002;Turkey;TR;Tunceli;minor;0
Derebucak;37.3918;31.5092;Turkey;TR;Konya;minor;0
Derecik;40.9459;39.594;Turkey;TR;Trabzon;minor;0
Dereköy;41.9328;27.3667;Turkey;TR;Kırklareli;minor;0
Dereli;40.7389;38.4434;Turkey;TR;Giresun;minor;0
Derendingen;47.1919;7.5899;Switzerland;CH;Solothurn;"";6483
Derepazarı;41.024;40.4233;Turkey;TR;Rize;minor;0
Derevyannoye;61.615;34.6347;Russia;RU;Kareliya;"";1266
Derik;37.3644;40.2689;Turkey;TR;Mardin;minor;61830
Derince;40.7569;29.8147;Turkey;TR;Kocaeli;minor;0
Derinkuyu;38.3751;34.7342;Turkey;TR;Nevşehir;minor;0
Dernekpazarı;40.7966;40.2446;Turkey;TR;Trabzon;minor;0
Derno;50.7728;25.7458;Ukraine;UA;Volyns’ka Oblast’;"";1529
Dertsen;48.335;22.6825;Ukraine;UA;Zakarpats’ka Oblast’;"";2793
Derýneia;35.063;33.9585;Cyprus;CY;Ammóchostos;"";5844
Desnogorsk;54.1531;33.2903;Russia;RU;Smolenskaya Oblast’;"";27771
Destek;40.8467;36.1831;Turkey;TR;Amasya;minor;0
Devecikonağı;39.9149;28.5618;Turkey;TR;Bursa;minor;0
Develi;38.3906;35.4922;Turkey;TR;Kayseri;minor;0
Develier;47.35;7.2833;Switzerland;CH;Jura;"";1354
Devrek;41.2192;31.9558;Turkey;TR;Zonguldak;minor;0
Devrekani;41.603;33.8392;Turkey;TR;Kastamonu;minor;0
Deyskoye;43.4744;44.1639;Russia;RU;Kabardino-Balkariya;"";4758
Değirmendere;40.72;29.7808;Turkey;TR;Kocaeli;minor;0
Değirmendere;38.1136;27.1414;Turkey;TR;İzmir;minor;0
Dicle;37.2887;42.0672;Turkey;TR;Şırnak;minor;0
Dicle;38.3657;40.0645;Turkey;TR;Diyarbakır;minor;0
Didim;37.3756;27.2678;Turkey;TR;Aydın;minor;0
Diegten;47.4133;7.8112;Switzerland;CH;Basel-Landschaft;"";1656
Dielsdorf;47.4836;8.4542;Switzerland;CH;Zürich;"";5940
Diemtigen;46.6494;7.5651;Switzerland;CH;Bern;"";2248
Diepoldsau;47.3831;9.65;Switzerland;CH;Sankt Gallen;"";6469
Diessenhofen;47.6833;8.7497;Switzerland;CH;Thurgau;"";3998
Dietikon;47.4056;8.4039;Switzerland;CH;Zürich;"";26936
Dietlikon;47.42;8.6192;Switzerland;CH;Zürich;"";7685
Dietwil;47.1488;8.392;Switzerland;CH;Aargau;"";1336
Digor;40.369;43.41;Turkey;TR;Kars;minor;0
Digora;43.15;44.15;Russia;RU;North Ossetia;"";10075
Dihtiari;50.5814;32.7699;Ukraine;UA;Chernihivs’ka Oblast’;"";1227
Dikbıyık;41.2208;36.615;Turkey;TR;Samsun;minor;0
Dikili;39.071;26.8902;Turkey;TR;İzmir;minor;44172
Dikmen;41.65;35.2667;Turkey;TR;Sinop;minor;0
Dilektepe;38.0752;41.8272;Turkey;TR;Siirt;minor;0
Dimitrovgrad;54.2333;49.5833;Russia;RU;Ul’yanovskaya Oblast’;"";116055
Dinar;38.0717;30.1656;Turkey;TR;Afyonkarahisar;minor;0
Dinek;37.3248;32.616;Turkey;TR;Konya;minor;0
Dinhard;47.5575;8.7697;Switzerland;CH;Zürich;"";1551
Dinskaya;45.2152;39.2265;Russia;RU;Krasnodarskiy Kray;minor;0
Dintikon;47.365;8.2292;Switzerland;CH;Aargau;"";2228
Direkli;39.7117;36.6517;Turkey;TR;Sivas;minor;0
Divnogorsk;55.95;92.3833;Russia;RU;Krasnoyarskiy Kray;"";29246
Divnomorskoye;44.5008;38.1353;Russia;RU;Krasnodarskiy Kray;"";6358
Divnoye;45.9089;43.3547;Russia;RU;Stavropol’skiy Kray;"";12998
Divriği;39.3667;38.1167;Turkey;TR;Sivas;minor;16377
Diyadin;39.5406;43.6713;Turkey;TR;Ağrı;minor;0
Diyarbakır;37.9108;40.2367;Turkey;TR;Diyarbakır;admin;1732396
Dmitriyev-L’govskiy;52.1289;35.0756;Russia;RU;Kurskaya Oblast’;"";6430
Dmitriyevka;54.8133;55.8;Russia;RU;Bashkortostan;"";4351
Dmitriyevskoye;45.8125;41.8897;Russia;RU;Stavropol’skiy Kray;"";2858
Dmitriyevskoye;58.3382;42.3564;Russia;RU;Kostromskaya Oblast’;"";2826
Dmitrov;56.35;37.5333;Russia;RU;Moskovskaya Oblast’;"";84408
Dmitrovsk-Orlovskiy;52.505;35.1464;Russia;RU;Orlovskaya Oblast’;"";5105
Dmukhailivka;49.0566;34.7604;Ukraine;UA;Dnipropetrovs’ka Oblast’;"";1367
Dmytrivka;48.3887;36.1918;Ukraine;UA;Dnipropetrovs’ka Oblast’;"";3772
Dmytrivka;46.6339;31.735;Ukraine;UA;Mykolayivs’ka Oblast’;"";1193
Dnipro;48.45;34.9833;Ukraine;UA;Dnipropetrovs’ka Oblast’;admin;1002111
Dniprorudne;47.3855;34.9879;Ukraine;UA;Zaporiz’ka Oblast’;"";18468
Dniprovske;48.5953;34.4207;Ukraine;UA;Dnipropetrovs’ka Oblast’;"";5628
Dnistrivka;48.5361;26.9258;Ukraine;UA;Chernivets’ka Oblast’;"";1208
Dno;57.8333;29.9667;Russia;RU;Pskovskaya Oblast’;"";7525
Dobele;56.6258;23.2811;Latvia;LV;Dobeles Novads;admin;8731
Dobra;48.9631;30.1325;Ukraine;UA;Cherkas’ka Oblast’;"";1130
Dobrik;48.0122;23.9033;Ukraine;UA;Zakarpats’ka Oblast’;"";1106
Dobromyl;49.5667;22.7833;Ukraine;UA;L’vivs’ka Oblast’;"";4890
Dobroslav;46.82;30.945;Ukraine;UA;Odes’ka Oblast’;"";6863
Dobrotvir;50.2056;24.3864;Ukraine;UA;L’vivs’ka Oblast’;"";6450
Dobrovelychkivka;48.35;31.1667;Ukraine;UA;Kirovohrads’ka Oblast’;minor;5763
Dobrovlyany;48.6641;25.754;Ukraine;UA;Ternopil’s’ka Oblast’;"";1980
Dobrovol’noye;45.5944;42.4019;Russia;RU;Stavropol’skiy Kray;"";1167
Dobrush;52.4167;31.3167;Belarus;BY;Homyel’skaya Voblasts’;minor;18311
Dobryanka;58.45;56.4167;Russia;RU;Permskiy Kray;"";32676
Dodurga;39.7997;29.9172;Turkey;TR;Bilecik;minor;0
Dodurga;40.8549;34.807;Turkey;TR;Çorum;minor;0
Dokshytsy;54.8918;27.7667;Belarus;BY;Vitsyebskaya Voblasts’;minor;0
Dokurcun;40.5732;30.8678;Turkey;TR;Sakarya;minor;0
Dolgoderevenskoye;55.3444;61.3422;Russia;RU;Chelyabinskaya Oblast’;"";7700
Dolgoprudnyy;55.9333;37.5;Russia;RU;Moskovskaya Oblast’;"";108861
Dolinsk;47.3167;142.8;Russia;RU;Sakhalinskaya Oblast’;"";11765
Dolyna;48.9703;24.0108;Ukraine;UA;Ivano-Frankivs’ka Oblast’;minor;20691
Dolynska;48.1111;32.7648;Ukraine;UA;Kirovohrads’ka Oblast’;minor;19287
Domanivka;47.6292;30.9896;Ukraine;UA;Mykolayivs’ka Oblast’;minor;0
Domaniç;39.8019;29.6092;Turkey;TR;Kütahya;minor;0
Domat/Ems;46.8198;9.4545;Switzerland;CH;Graubünden;minor;8037
Dombarovskiy;50.7546;59.54;Russia;RU;Orenburgskaya Oblast’;"";9556
Dombay;38.1542;30.2088;Turkey;TR;Afyonkarahisar;minor;0
Domna;51.8971;113.1573;Russia;RU;Zabaykal’skiy Kray;"";6687
Domodedovo;55.4333;37.75;Russia;RU;Moskovskaya Oblast’;"";127850
Donetsk;48.3369;39.9449;Russia;RU;Rostovskaya Oblast’;"";47770
Donetsk;48.0089;37.8042;Ukraine;UA;Donets’ka Oblast’;admin;929063
Donskoy;53.9667;38.3167;Russia;RU;Tul’skaya Oblast’;"";63631
Dornach;47.4789;7.6181;Switzerland;CH;Solothurn;"";6778
Dorogobuzh;54.92;33.3078;Russia;RU;Smolenskaya Oblast’;"";9793
Doroshivtsi;48.5872;25.8931;Ukraine;UA;Chernivets’ka Oblast’;"";1534
Dorutay;38.7994;44.0673;Turkey;TR;Van;minor;0
Doslidnytske;49.9219;30.1478;Ukraine;UA;Kyyivs’ka Oblast’;"";1881
Dottikon;47.3844;8.2403;Switzerland;CH;Aargau;"";3881
Dotzigen;47.1206;7.3403;Switzerland;CH;Bern;"";1457
Dovbysh;50.3722;27.9895;Ukraine;UA;Zhytomyrs’ka Oblast’;"";4288
Dovhe;48.3675;23.2869;Ukraine;UA;Zakarpats’ka Oblast’;"";6790
Dovolnoye;54.4917;79.6736;Russia;RU;Novosibirskaya Oblast’;"";6774
Dovzhansk;48.0846;39.6516;Ukraine;UA;Luhans’ka Oblast’;minor;95153
Dovzhok;48.2392;28.5261;Ukraine;UA;Vinnyts’ka Oblast’;"";2013
Doğanbey;37.8005;31.8911;Turkey;TR;Konya;minor;0
Doğanbeyli;39.6952;39.035;Turkey;TR;Erzincan;minor;0
Doğanca;37.7995;42.331;Turkey;TR;Siirt;minor;0
Doğanhisar;38.1463;31.6765;Turkey;TR;Konya;minor;0
Doğankent;40.8075;38.9172;Turkey;TR;Giresun;minor;0
Doğankent;36.8443;35.344;Turkey;TR;Adana;minor;0
Doğanpınar;36.8432;37.6176;Turkey;TR;Gaziantep;minor;0
Doğansu;39.1333;42.7333;Turkey;TR;Ağrı;minor;0
Doğantepe;40.5978;35.6042;Turkey;TR;Amasya;minor;0
Doğanyol;38.3075;39.0343;Turkey;TR;Malatya;minor;0
Doğanyurt;40.6881;36.7164;Turkey;TR;Tokat;minor;0
Doğanyurt;42.0046;33.4603;Turkey;TR;Kastamonu;minor;0
Doğançay;40.6265;30.3356;Turkey;TR;Sakarya;minor;0
Doğanşar;40.2084;37.5312;Turkey;TR;Sivas;minor;0
Doğanşehir;38.0857;37.8712;Turkey;TR;Malatya;minor;0
Doğruyol;40.9799;43.471;Turkey;TR;Kars;minor;0
Doğruyol;41.0613;43.322;Turkey;TR;Ardahan;minor;0
Doğubayazıt;39.55;44.0833;Turkey;TR;Ağrı;minor;121263
Drabeši;57.2425;25.2825;Latvia;LV;Amatas Novads;admin;119
Drabiv;49.9603;32.1481;Ukraine;UA;Cherkas’ka Oblast’;"";6450
Drachyntsi;48.3164;25.7003;Ukraine;UA;Chernivets’ka Oblast’;"";2324
Drahichyn;52.1833;25.15;Belarus;BY;Brestskaya Voblasts’;"";14963
Drezna;55.75;38.8333;Russia;RU;Moskovskaya Oblast’;"";11480
Drohobych;49.35;23.5;Ukraine;UA;L’vivs’ka Oblast’;minor;124269
Drovnino;55.5283;35.4075;Russia;RU;Moskovskaya Oblast’;"";1886
Druva;56.6953;22.4489;Latvia;LV;Saldus Novads;"";1045
Druzhba;48.3831;135.3122;Russia;RU;Khabarovskiy Kray;"";1946
Druzhkivka;48.6203;37.5278;Ukraine;UA;Donets’ka Oblast’;"";59400
Drybin;54.1192;31.0939;Belarus;BY;Mahilyowskaya Voblasts’;minor;0
Duba;48.8481;24.1533;Ukraine;UA;Ivano-Frankivs’ka Oblast’;"";1150
Duba-Yurt;43.0353;45.7306;Russia;RU;Chechnya;"";7135
Dubivskyi;48.0822;39.1569;Ukraine;UA;Luhans’ka Oblast’;"";4550
Dubivtsi;49.0814;24.7736;Ukraine;UA;Ivano-Frankivs’ka Oblast’;"";2059
Dubna;56.75;37.15;Russia;RU;Moskovskaya Oblast’;"";75144
Dubno;50.3931;25.735;Ukraine;UA;Rivnens’ka Oblast’;minor;37545
Dubove;48.1781;23.8863;Ukraine;UA;Zakarpats’ka Oblast’;"";9938
Dubovka;49.05;44.8333;Russia;RU;Volgogradskaya Oblast’;"";13988
Dubovka;45.224;42.1662;Russia;RU;Stavropol’skiy Kray;"";1674
Dubovskoye;47.4092;42.7575;Russia;RU;Rostovskaya Oblast’;minor;8544
Dubrovka;56.391;28.6385;Russia;RU;Pskovskaya Oblast’;minor;0
Dubrovytsya;51.5667;26.5667;Ukraine;UA;Rivnens’ka Oblast’;"";9424
Dubrowna;54.5667;30.6833;Belarus;BY;Vitsyebskaya Voblasts’;minor;6951
Dubyshche;50.9264;25.3;Ukraine;UA;Volyns’ka Oblast’;"";1958
Dudinka;69.4;86.1833;Russia;RU;Krasnoyarskiy Kray;"";21015
Duggingen;47.45;7.6;Switzerland;CH;Basel-Landschaft;"";1541
Dugulubgey;43.65;43.55;Russia;RU;Kabardino-Balkariya;"";20718
Duillier;46.4167;6.2333;Switzerland;CH;Vaud;"";1080
Dukhovshchina;55.2;32.4167;Russia;RU;Smolenskaya Oblast’;"";4103
Dulliken;47.3525;7.9458;Switzerland;CH;Solothurn;"";5048
Dumlu;40.0586;41.3565;Turkey;TR;Erzurum;minor;0
Dumlupınar;38.8541;29.9772;Turkey;TR;Kütahya;minor;0
Dundaga;57.5167;22.35;Latvia;LV;Dundagas Novads;admin;1400
Durak;39.7066;28.2718;Turkey;TR;Balıkesir;minor;0
Durağan;41.4158;35.0544;Turkey;TR;Sinop;minor;0
Durgeli;42.6656;47.2967;Russia;RU;Dagestan;"";7105
Dursunbey;39.586;28.6257;Turkey;TR;Balıkesir;minor;0
Duslyk;54.5492;53.7772;Russia;RU;Bashkortostan;"";2145
Dutluca;39.1359;38.6066;Turkey;TR;Erzincan;minor;0
Duvan;55.695;57.8972;Russia;RU;Bashkortostan;"";3669
Dvuluchnoye;50.0406;38.0223;Russia;RU;Belgorodskaya Oblast’;"";1430
Dyachenkovo;49.9112;40.5998;Russia;RU;Voronezhskaya Oblast’;"";2288
Dyakovka;50.7244;46.7786;Russia;RU;Saratovskaya Oblast’;"";1232
Dyatkovo;53.6;34.3333;Russia;RU;Bryanskaya Oblast’;"";26775
Dykanka;49.8222;34.5341;Ukraine;UA;Poltavs’ka Oblast’;minor;7662
Dylym;43.0714;46.6316;Russia;RU;Dagestan;"";10014
Dymer;50.7872;30.3117;Ukraine;UA;Kyyivs’ka Oblast’;"";5582
Dyrdyn;49.2428;31.4467;Ukraine;UA;Cherkas’ka Oblast’;"";1440
Dyrestuy;50.6581;106.0695;Russia;RU;Buryatiya;"";1095
Dyshne-Vedeno;42.9555;46.1248;Russia;RU;Chechnya;"";5732
Dyubek;42.0275;47.9692;Russia;RU;Dagestan;"";1894
Dyurtyuli;55.4833;54.8667;Russia;RU;Bashkortostan;"";30969
Dzerzhinsk;56.2333;43.45;Russia;RU;Nizhegorodskaya Oblast’;"";231797
Dzerzhinskiy;55.6333;37.85;Russia;RU;Moskovskaya Oblast’;"";55669
Dzerzhinskoye;56.518299999999996;84.8369;Russia;RU;Tomskaya Oblast’;"";2914
Dzhalka;43.3186;45.9878;Russia;RU;Chechnya;"";8972
Dzhalykovo;45.6083;47.4336;Russia;RU;Kalmykiya;"";1032
Dzhankoi;45.7086;34.393299999999996;Ukraine;UA;Krym, Avtonomna Respublika;minor;38714
Dzherokay;44.9933;40.3113;Russia;RU;Adygeya;"";1116
Dzhida;50.6861;106.1792;Russia;RU;Buryatiya;"";3178
Dzhugurty;43.165;46.1786;Russia;RU;Chechnya;"";2255
Dzhulynka;48.4417;29.7475;Ukraine;UA;Vinnyts’ka Oblast’;"";3953
Dzisna;55.5628;28.2258;Belarus;BY;Vitsyebskaya Voblasts’;"";1492
Dzyarzhynsk;53.6833;27.1333;Belarus;BY;Minskaya Voblasts’;"";29739
Dzyatlava;53.45;25.4;Belarus;BY;Hrodzyenskaya Voblasts’;"";8061
Dáli;35.024;33.4226;Cyprus;CY;Lefkosía;"";10466
Dägerlen;47.5619;8.7231;Switzerland;CH;Zürich;"";1012
Dällikon;47.4406;8.4389;Switzerland;CH;Zürich;"";4100
Däniken;47.356700000000004;7.9818999999999996;Switzerland;CH;Solothurn;"";2851
Dänikon;47.4469;8.4069;Switzerland;CH;Zürich;"";1869
Dëmskiy;53.5381;54.455;Russia;RU;Bashkortostan;"";1028
Dökmetepe;40.3122;36.2918;Turkey;TR;Tokat;minor;0
Dörflingen;47.7075;8.7202;Switzerland;CH;Schaffhausen;"";1028
Dörtdivan;40.7205;32.0631;Turkey;TR;Bolu;minor;0
Dörtyol;36.8392;36.2303;Turkey;TR;Hatay;minor;0
Döttingen;47.5706;8.2597;Switzerland;CH;Aargau;"";4057
Döşemealtı;37.0233;30.6025;Turkey;TR;Antalya;minor;0
Dübendorf;47.3981;8.6194;Switzerland;CH;Zürich;"";28002
Düdingen;46.8461;7.1906;Switzerland;CH;Fribourg;"";7961
Dürnten;47.2789;8.8433;Switzerland;CH;Zürich;"";7518
Dürrenroth;47.0892;7.791;Switzerland;CH;Bern;"";1061
Dürrenäsch;47.3219;8.1569;Switzerland;CH;Aargau;"";1255
Düvertepe;39.2373;28.44;Turkey;TR;Balıkesir;minor;0
Düzce;40.8417;31.1583;Turkey;TR;Düzce;admin;240633
Düziçi;37.2422;36.4548;Turkey;TR;Osmaniye;minor;0
Düzköy;40.8746;39.4154;Turkey;TR;Trabzon;minor;0
Dəvəçi;41.2012;48.9871;Azerbaijan;AZ;Şabran;admin;0
Ebnat-Kappel;47.2632;9.1234;Switzerland;CH;Sankt Gallen;"";5031
Eceabat;40.1842;26.3575;Turkey;TR;Çanakkale;minor;8912
Echallens;46.6333;6.6333;Switzerland;CH;Vaud;minor;5740
Echichens;46.5333;6.5;Switzerland;CH;Vaud;"";3059
Eckerö;60.2167;19.55;Finland;FI;Åland;minor;935
Eclépens;46.65;6.5333;Switzerland;CH;Vaud;"";1212
Ecublens;46.5276;6.5605;Switzerland;CH;Vaud;"";12854
Edincik;40.3423;27.8613;Turkey;TR;Balıkesir;minor;0
Edirne;41.6781;26.5594;Turkey;TR;Edirne;admin;180327
Edremit;39.5961;27.0244;Turkey;TR;Balıkesir;minor;0
Edremit;38.4207;43.2589;Turkey;TR;Van;minor;0
Eflani;41.4229;32.9576;Turkey;TR;Karabük;minor;0
Egerkingen;47.3219;7.7943999999999996;Switzerland;CH;Solothurn;"";3683
Egg;47.3019;8.6906;Switzerland;CH;Zürich;"";8596
Eggenwil;47.3706;8.3403;Switzerland;CH;Aargau;"";1053
Eggiwil;46.8757;7.7957;Switzerland;CH;Bern;"";2438
Eglisau;47.5733;8.5261;Switzerland;CH;Zürich;"";5170
Egliswil;47.3499;8.1863;Switzerland;CH;Aargau;"";1456
Egnach;47.5497;9.3833;Switzerland;CH;Thurgau;"";4711
Egvekinot;66.3221;-179.1837;Russia;RU;Chukotskiy Avtonomnyy Okrug;"";2248
Ehrendingen;47.4995;8.3443;Switzerland;CH;Aargau;"";4823
Eich;47.1506;8.1678;Switzerland;CH;Luzern;"";1626
Eichberg;47.343;9.5308;Switzerland;CH;Sankt Gallen;"";1524
Eiken;47.5331;7.9902999999999995;Switzerland;CH;Aargau;"";2289
Einsiedeln;47.1278;8.7431;Switzerland;CH;Schwyz;minor;15550
Ekazhevo;43.2122;44.8231;Russia;RU;Ingushetiya;"";19036
Ekibastuz;51.7298;75.3266;Kazakhstan;KZ;Pavlodar;"";159760
Ekinözü;38.0597;37.1879;Turkey;TR;Kahramanmaraş;minor;0
Elazığ;38.6667;39.2167;Turkey;TR;Elazığ;admin;421726
Elbaşı;38.6735;35.9675;Turkey;TR;Kayseri;minor;0
Elbeyli;36.6742;37.4667;Turkey;TR;Kilis;minor;0
Elbistan;38.2059;37.1983;Turkey;TR;Kahramanmaraş;minor;0
Elburgan;44.0842;41.8025;Russia;RU;Karachayevo-Cherkesiya;"";2498
Eldikan;60.8;135.1833;Russia;RU;Sakha (Yakutiya);"";1516
Eldivan;40.5297;33.499;Turkey;TR;Çankırı;minor;0
Eleja;56.4067;23.6875;Latvia;LV;Jelgavas Novads;"";1574
Elekmonar;51.4589;85.9878;Russia;RU;Altay;"";1895
Elektrogorsk;55.8833;38.7833;Russia;RU;Moskovskaya Oblast’;"";22950
Elektrostal;55.8;38.45;Russia;RU;Moskovskaya Oblast’;"";158508
Elektrougli;55.7167;38.2167;Russia;RU;Moskovskaya Oblast’;"";20823
Eleşkirt;39.798;42.6757;Turkey;TR;Ağrı;minor;0
Elgg;47.4914;8.8645;Switzerland;CH;Zürich;"";4903
Elgyay;62.4861;117.5064;Russia;RU;Sakha (Yakutiya);"";2027
Elin-Yurt;43.6717;44.9602;Russia;RU;Chechnya;"";8446
Elista;46.3167;44.2667;Russia;RU;Kalmykiya;admin;103132
Elistanzhi;42.9731;46.0203;Russia;RU;Chechnya;"";2797
Elmadağ;39.9208;33.2308;Turkey;TR;Ankara;minor;0
Elmalı;36.7358;29.9178;Turkey;TR;Antalya;minor;0
Elmalıdere;39.6372;42.32;Turkey;TR;Erzurum;minor;0
Elsau;47.5061;8.8028;Switzerland;CH;Zürich;"";3660
Elva;58.2275;26.4158;Estonia;EE;Tartumaa;minor;5669
Elvanlı;36.704;34.3737;Turkey;TR;Mersin;minor;0
El’khotovo;43.3333;44.2;Russia;RU;North Ossetia;"";12501
Embrach;47.5103;8.5933;Switzerland;CH;Zürich;"";9419
Emet;39.343;29.2585;Turkey;TR;Kütahya;minor;0
Eminbey;41.5476;42.782;Turkey;TR;Ardahan;minor;0
Eminkhyur;41.7658;48.3253;Russia;RU;Dagestan;"";3374
Emiralem;38.6097;27.1459;Turkey;TR;İzmir;minor;0
Emirdağ;39.0197;31.15;Turkey;TR;Afyonkarahisar;minor;37817
Emirgazi;37.9022;33.8372;Turkey;TR;Konya;minor;0
Emmen;47.0772;8.3;Switzerland;CH;Luzern;"";29292
Emmetten;46.9567;8.5181;Switzerland;CH;Nidwalden;"";1429
Endingen;47.5386;8.2903;Switzerland;CH;Aargau;"";2574
Endirey;43.1681;46.6529;Russia;RU;Dagestan;"";8105
Enerhodar;47.4989;34.6558;Ukraine;UA;Zaporiz’ka Oblast’;minor;53567
Enez;40.7247;26.0825;Turkey;TR;Edirne;minor;0
Engelberg;46.8206;8.4028;Switzerland;CH;Obwalden;"";4181
Engels;51.4667;46.1167;Russia;RU;Saratovskaya Oblast’;"";264990
Engure;57.1606;23.2244;Latvia;LV;Engures Novads;"";1310
Ennenda;47.0336;9.0775;Switzerland;CH;Glarus;"";2808
Ennetbaden;47.481700000000004;8.3167;Switzerland;CH;Aargau;"";3498
Ennetbürgen;46.9844;8.4139;Switzerland;CH;Nidwalden;"";4801
Ennetmoos;46.9567;8.3372;Switzerland;CH;Nidwalden;"";2193
Enonkoski;62.0889;28.9333;Finland;FI;Etelä-Savo;minor;1473
Enontekiö;68.3847;23.6389;Finland;FI;Lappi;minor;1861
Entlebuch;46.9928;8.0631;Switzerland;CH;Luzern;"";3315
Epalinges;46.55;6.6667;Switzerland;CH;Vaud;"";9611
Ependes;46.75;7.15;Switzerland;CH;Fribourg;"";1089
Erbaa;40.6689;36.5675;Turkey;TR;Tokat;minor;0
Erbek;51.6538;94.21;Russia;RU;Tyva;"";1231
Erciş;39.0259;43.3596;Turkey;TR;Van;minor;0
Erdek;40.3996;27.7935;Turkey;TR;Balıkesir;minor;0
Erdemli;36.605;34.3084;Turkey;TR;Mersin;minor;0
Erenler;40.755;30.3934;Turkey;TR;Sakarya;minor;0
Erentepe;39.0089;42.0436;Turkey;TR;Muş;minor;0
Ereğli;41.2583;31.425;Turkey;TR;Zonguldak;minor;175605
Ereğli;37.5058;34.0517;Turkey;TR;Konya;minor;145389
Erfelek;41.8793;34.9184;Turkey;TR;Sinop;minor;12049
Ergani;38.269;39.7545;Turkey;TR;Diyarbakır;minor;0
Eriswil;47.0831;7.85;Switzerland;CH;Bern;"";1396
Erken-Yurt;44.4481;41.9136;Russia;RU;Karachayevo-Cherkesiya;"";2206
Erkhirik;51.8894;107.8272;Russia;RU;Buryatiya;"";2261
Erkilet;38.8204;35.4401;Turkey;TR;Kayseri;minor;0
Erlach;47.0426;7.0974;Switzerland;CH;Bern;"";1384
Erlen;47.5497;9.2331;Switzerland;CH;Thurgau;"";3749
Erlenbach;47.3044;8.5922;Switzerland;CH;Zürich;"";5567
Erlenbach im Simmental;46.6608;7.5529;Switzerland;CH;Bern;"";1744
Erlinsbach;47.4067;8.0069;Switzerland;CH;Aargau;"";3556
Ermatingen;47.669200000000004;9.0797;Switzerland;CH;Thurgau;"";3455
Ermenek;36.6404;32.8918;Turkey;TR;Karaman;minor;0
Ersakon;44.4293;41.7741;Russia;RU;Karachayevo-Cherkesiya;"";2626
Ersigen;47.0917;7.5942;Switzerland;CH;Bern;"";2066
Ertil;51.8333;40.8;Russia;RU;Voronezhskaya Oblast’;"";10265
Ertuğrul;39.5758;27.7067;Turkey;TR;Balıkesir;minor;0
Eruh;37.7418;42.1742;Turkey;TR;Siirt;minor;0
Erzin;36.9539;36.2022;Turkey;TR;Hatay;minor;41368
Erzincan;39.7464;39.4914;Turkey;TR;Erzincan;admin;157452
Erzurum;39.9097;41.2756;Turkey;TR;Erzurum;admin;767848
Erçek;38.6511;43.644;Turkey;TR;Van;minor;0
Eschenbach;47.1328;8.3197;Switzerland;CH;Luzern;"";3589
Eschenz;47.65;8.8664;Switzerland;CH;Thurgau;"";1743
Eschlikon;47.461;8.959;Switzerland;CH;Thurgau;"";4372
Esendere;37.7156;44.598;Turkey;TR;Hakkâri;minor;0
Esençay;40.6681;36.3803;Turkey;TR;Amasya;minor;0
Esik;43.3552;77.4524;Kazakhstan;KZ;Almaty;"";36715
Esiroğlu;40.8733;39.6883;Turkey;TR;Trabzon;minor;0
Eskil;38.4017;33.4131;Turkey;TR;Aksaray;minor;0
Eskipazar;40.943;32.5309;Turkey;TR;Karabük;minor;0
Eskişehir;39.7767;30.5206;Turkey;TR;Eskişehir;admin;871187
Espiye;40.947;38.703;Turkey;TR;Giresun;minor;0
Espoo;60.21;24.66;Finland;FI;Uusimaa;minor;269802
Essertines-sur-Yverdon;46.7167;6.6333;Switzerland;CH;Vaud;"";1023
Esso;55.9274;158.7071;Russia;RU;Kamchatskiy Kray;"";1923
Estavayer-le-Lac;46.85;6.8472;Switzerland;CH;Fribourg;"";9712
Etagnières;46.6;6.6167;Switzerland;CH;Vaud;"";1115
Etili;39.9856;26.8967;Turkey;TR;Çanakkale;minor;0
